Nom,Telefon,Direccio,Districte,Barri,Ciutat,Codi Postal,Regio,Pais,Lat,Lon,Web,Mail
Bar Restaurant Habana Barcelona,-,-----,Ciutat Vella,la Barceloneta,BARCELONA,08039,BARCELONA,ESPANYA,41.37539852222222,2.18853675,http://www.habanabarcelona.com,mailto:habanabarcelona@habanabarcelona.com
 Fresh,-,-----,Sarrià-Sant Gervasi,Sant Gervasi - Galvany,BARCELONA,08006,BARCELONA,ESPANYA,41.39700243055555,2.1522896666666664,-----,-----
Bar Pinocho,-,-----,Ciutat Vella,el Raval,BARCELONA,08002,BARCELONA,ESPANYA,41.38267368611111,2.171678722222222,-----,-----
Col·legi d'Arquitectes de Catalunya,-,-----,Ciutat Vella,el Barri Gòtic,BARCELONA,08002,BARCELONA,ESPANYA,41.38444698611111,2.175041361111111,-----,-----
Bar Glüh,-,-----,Ciutat Vella,"Sant Pere, Santa Caterina i la Ribera",BARCELONA,08003,BARCELONA,ESPANYA,41.38692916666667,2.1761466388888886,-----,-----
Bar Mandarina,-,-----,Eixample,l'Antiga Esquerra de l'Eixample,BARCELONA,08011,BARCELONA,ESPANYA,41.38415379722222,2.158560222222222,-----,-----
Bar Restaurant El Último Agave,-,-----,Eixample,l'Antiga Esquerra de l'Eixample,BARCELONA,08011,BARCELONA,ESPANYA,41.38786373055556,2.1588890277777777,http://www.elultimoagave.com,mailto:elultimoagave@elultimoagave.com
Restaurant Candela Raval,-,-----,Ciutat Vella,el Raval,BARCELONA,08001,BARCELONA,ESPANYA,41.38072328888889,2.1711486944444442,http://www.candelaraval.com,mailto:info@candelaraval.com
Hotel Claris,-,-----,Eixample,la Dreta de l'Eixample,BARCELONA,08009,BARCELONA,ESPANYA,41.39445991388889,2.165013194444444,http://www.derbyhotels.es,mailto:east47.bcn@derbyhotels.es
Restaurant Japonès Misaki,-,-----,Eixample,l'Antiga Esquerra de l'Eixample,BARCELONA,08011,BARCELONA,ESPANYA,41.38759699444444,2.1605608333333333,-----,-----
Restaurant La Locanda,-,-----,Ciutat Vella,el Barri Gòtic,BARCELONA,08002,BARCELONA,ESPANYA,41.38595585,2.1755125555555552,http://www.restaurantelalocanda.com,-----
Gran Hotel Havana Barcelona,-,-----,Eixample,la Dreta de l'Eixample,BARCELONA,08010,BARCELONA,ESPANYA,41.39270169444445,2.1721956944444445,http://www.grandhotelhavana.com,-----
Restaurant Fresc Co *Av Diagonal/Muntaner,-,-----,Eixample,l'Antiga Esquerra de l'Eixample,BARCELONA,08036,BARCELONA,ESPANYA,41.39360134166667,2.1489241666666667,http://www.frescco.com,mailto:frescco@frescco.com
Restaurant Xinès Hecheng,-,-----,Eixample,Sant Antoni,BARCELONA,08015,BARCELONA,ESPANYA,41.375703025,2.155971611111111,-----,-----
Restaurant Eterna,-,-----,Eixample,la Nova Esquerra de l'Eixample,BARCELONA,08015,BARCELONA,ESPANYA,41.38174175555556,2.1528230833333333,http://www.restauranteeterna.com,mailto:info@restauranteeterna.com
Restaurant Kailash,-,-----,Sant Martí,el Camp de l'Arpa del Clot,BARCELONA,08026,BARCELONA,ESPANYA,41.41133651944444,2.1804401388888888,-----,mailto:tibkailash@hotmail.com
Free Girls,-,-----,Sarrià-Sant Gervasi,Sant Gervasi - Galvany,BARCELONA,08006,BARCELONA,ESPANYA,41.39936953055555,2.151432388888889,-----,-----
Bulería Café-bar,-,-----,Eixample,l'Antiga Esquerra de l'Eixample,BARCELONA,08011,BARCELONA,ESPANYA,41.38879096944444,2.158984611111111,-----,-----
Restaurant Can Cargol,-,-----,Eixample,la Dreta de l'Eixample,BARCELONA,08009,BARCELONA,ESPANYA,41.39548459444445,2.167451972222222,-----,-----
Restaurant Hisop,-,-----,Sarrià-Sant Gervasi,Sant Gervasi - Galvany,BARCELONA,08021,BARCELONA,ESPANYA,41.39445760833333,2.1480123333333334,http://www.hisop.com,mailto:hisop@hisop.com
Cafè Just,-,-----,Ciutat Vella,el Barri Gòtic,BARCELONA,08002,BARCELONA,ESPANYA,41.38267685277778,2.1796073333333332,-----,-----
Restaurant Can Seixanta *Pau Claris,-,-----,Eixample,la Dreta de l'Eixample,BARCELONA,08009,BARCELONA,ESPANYA,41.39298624166667,2.1669573055555555,-----,-----
Restaurant Tívoli Tercer Mil·lenni,-,-----,Sarrià-Sant Gervasi,Sant Gervasi - Galvany,BARCELONA,08021,BARCELONA,ESPANYA,41.39807938888889,2.1436165,http://www.tivoli-bcn.com,-----
Bar Imagine,-,-----,Eixample,l'Antiga Esquerra de l'Eixample,BARCELONA,08036,BARCELONA,ESPANYA,41.392690277777774,2.1534565,-----,-----
Bar Prelude,-,-----,Eixample,la Dreta de l'Eixample,BARCELONA,08037,BARCELONA,ESPANYA,41.39613634166667,2.1631571944444445,-----,-----
Restaurant Litoral,-,-----,Ciutat Vella,la Barceloneta,BARCELONA,08003,BARCELONA,ESPANYA,41.376059347222224,2.1900202777777777,-----,-----
Restaurant Bona Tapa,-,-----,Nou Barris,Porta,BARCELONA,08016,BARCELONA,ESPANYA,41.43035123888889,2.180571361111111,-----,-----
 Tea Company,-,-----,Nou Barris,el Turó de la Peira,BARCELONA,08031,BARCELONA,ESPANYA,41.430457141666665,2.1732158611111108,-----,-----
Restaurant Melton,-,-----,Eixample,l'Antiga Esquerra de l'Eixample,BARCELONA,08036,BARCELONA,ESPANYA,41.392861583333335,2.1509643888888887,http://www.restauran-melton.com,-----
Cafeteria Restaurant Zelig,-,-----,Ciutat Vella,el Raval,BARCELONA,08001,BARCELONA,ESPANYA,41.37976693888889,2.166256722222222,-----,-----
Bar McDonald's *Maremàgnum,-,-----,Ciutat Vella,el Barri Gòtic,BARCELONA,08039,BARCELONA,ESPANYA,41.37573091111111,2.1832132777777775,http://www.mcdonalds.es,-----
Restaurant Grill-Braseria,-,-----,Ciutat Vella,el Barri Gòtic,BARCELONA,08039,BARCELONA,ESPANYA,41.37573091111111,2.1832132777777775,-----,-----
Bar Nit i Dia *Maremàgnum,-,-----,Ciutat Vella,el Barri Gòtic,BARCELONA,08039,BARCELONA,ESPANYA,41.37573091111111,2.1832132777777775,-----,-----
Bar restaurant Berlín,-,-----,Sarrià-Sant Gervasi,Sant Gervasi - Galvany,BARCELONA,08021,BARCELONA,ESPANYA,41.394329347222225,2.149497361111111,-----,-----
Restaurant El Comedor,-,-----,Ciutat Vella,el Barri Gòtic,BARCELONA,08002,BARCELONA,ESPANYA,41.38110431388889,2.1781321666666664,-----,-----
Restaurant Polenta,-,-----,Ciutat Vella,el Barri Gòtic,BARCELONA,08002,BARCELONA,ESPANYA,41.381238269444445,2.1805003333333333,-----,-----
Bar Jupiter,-,-----,Ciutat Vella,el Barri Gòtic,BARCELONA,08002,BARCELONA,ESPANYA,41.382098825,2.18008325,-----,-----
Bar Restaurant L'Hostal de la Bona Sort,-,-----,Ciutat Vella,"Sant Pere, Santa Caterina i la Ribera",BARCELONA,08003,BARCELONA,ESPANYA,41.38608679722222,2.1802485833333334,-----,-----
Restaurant Lizarran *Sardenya,-,-----,Eixample,la Sagrada Família,BARCELONA,08025,BARCELONA,ESPANYA,41.40382598611111,2.172937138888889,http://www.grupolizarran.com,mailto:lizarransagradafamilia@yahoo.com
Restaurant Coure,-,-----,Sarrià-Sant Gervasi,Sant Gervasi - Galvany,BARCELONA,08021,BARCELONA,ESPANYA,41.39440351388889,2.147880222222222,-----,mailto:restaurantcoure@hotmail.com
Restaurant Farga *Beethoven,-,-----,Sarrià-Sant Gervasi,Sant Gervasi - Galvany,BARCELONA,08021,BARCELONA,ESPANYA,41.39308124722222,2.1405547222222223,-----,-----
Restaurant Asador de Aranda *Pau Claris,-,-----,Eixample,la Dreta de l'Eixample,BARCELONA,08010,BARCELONA,ESPANYA,41.38921386388889,2.171962388888889,-----,mailto:asador@asadoraranda.com
Restaurant Foster's Hollywood *Pg M Girona,-,-----,Les Corts,Pedralbes,BARCELONA,08034,BARCELONA,ESPANYA,41.390579880555556,2.123404777777778,http://www.fostershollywood.es,mailto:fostershollywood@fostershollywood.es
Restaurant Foster's Hollywood *La Maquinista,-,-----,Sant Andreu,el Bon Pastor,BARCELONA,08030,BARCELONA,ESPANYA,41.442532125,2.198353,http://www.fostershollywood.es,mailto:fostershollywood@fostershollywood.es
Restaurant Foster's Hollywood *Heron City,-,-----,Nou Barris,Porta,BARCELONA,08016,BARCELONA,ESPANYA,41.43509441944444,2.1810243333333332,http://www.fostershollywood.es,mailto:fostershollywood@fostershollywood.es
Bar Restaurant La Tasqueta,-,-----,Sant Martí,el Poblenou,BARCELONA,08005,BARCELONA,ESPANYA,41.40296381388889,2.200019611111111,-----,-----
Bar Restaurant Pita Inn *Heron City,-,-----,Nou Barris,Porta,BARCELONA,08016,BARCELONA,ESPANYA,41.43509441944444,2.1810243333333332,-----,-----
Restaurant Bar Musical Imprevist,-,-----,Ciutat Vella,el Raval,BARCELONA,08001,BARCELONA,ESPANYA,41.38169648888889,2.1645231944444445,http://www.imprevist.es,-----
Bar Restaurant Japonès Machiroku,-,-----,Ciutat Vella,el Barri Gòtic,BARCELONA,08002,BARCELONA,ESPANYA,41.38717027777778,2.1729170555555553,-----,-----
Bar cafeteria Il Caffè di Roma *Heron City,-,-----,Nou Barris,Porta,BARCELONA,08016,BARCELONA,ESPANYA,41.43509441944444,2.1810243333333332,-----,-----
Restaurant Rodilla *Diagonal Mar,-,-----,Sant Martí,Poble Nou,BARCELONA,08019,BARCELONA,ESPANYA,41.41097503333333,2.2185804444444446,-----,-----
Restaurant Little Italy *Av Marques de L'Argentera,-,-----,Ciutat Vella,"Sant Pere, Santa Caterina i la Ribera",BARCELONA,08003,BARCELONA,ESPANYA,41.38499712777778,2.185030111111111,-----,-----
Hotel Saint Moritz,-,-----,Eixample,la Dreta de l'Eixample,BARCELONA,08007,BARCELONA,ESPANYA,41.39093758333333,2.1679429999999997,http://www.hcchotels.com,-----
Bar Ca la Lluisa *Diagonal Mar,-,-----,Sant Martí,Poble Nou,BARCELONA,08019,BARCELONA,ESPANYA,41.41097503333333,2.2185804444444446,-----,-----
Restaurant El Racó d'en José Luis II,-,-----,Sant Martí,la Vila Olímpica del Poblenou,BARCELONA,08005,BARCELONA,ESPANYA,41.390896519444446,2.1978509444444443,http://www.accua.com,-----
Da Geppetto,-,-----,Sant Martí,el Poblenou,BARCELONA,08005,BARCELONA,ESPANYA,41.39898908333333,2.2035011944444447,-----,-----
Club Natació Atlètic - Barceloneta,-,-----,Ciutat Vella,la Barceloneta,BARCELONA,08003,BARCELONA,ESPANYA,41.375434713888886,2.1898365833333333,-----,-----
Restaurant Taberna Abasolo Etxea,-,-----,Sarrià-Sant Gervasi,Sant Gervasi - Galvany,BARCELONA,08021,BARCELONA,ESPANYA,41.39488239722222,2.1438170833333334,http://www.abasoloetxea.com,-----
Bar Berlin,-,-----,Sarrià-Sant Gervasi,Sant Gervasi - Galvany,BARCELONA,08021,BARCELONA,ESPANYA,41.394329347222225,2.149497361111111,-----,-----
Bar Restaurant On,-,-----,Ciutat Vella,el Barri Gòtic,BARCELONA,08002,BARCELONA,ESPANYA,41.382895425,2.1754921388888886,-----,-----
Restaurant Biblioteca,-,-----,Ciutat Vella,el Raval,BARCELONA,08001,BARCELONA,ESPANYA,41.37923755833334,2.1719045555555554,-----,mailto:chef@bilbio-teca.com
Bar musical Fritz Mar,-,-----,Ciutat Vella,la Barceloneta,BARCELONA,08005,BARCELONA,ESPANYA,41.383444583333336,2.1954624444444444,-----,-----
Hotel Rívoli Rambla,-,-----,Ciutat Vella,el Barri Gòtic,BARCELONA,08002,BARCELONA,ESPANYA,41.38428501666667,2.1711567777777776,-----,-----
Hotel Barcelona Hilton,-,-----,Les Corts,les Corts,BARCELONA,08014,BARCELONA,ESPANYA,41.38889217222222,2.131376027777778,-----,-----
Bar Restaurant L'Explendid,-,-----,Sarrià-Sant Gervasi,Sant Gervasi - Galvany,BARCELONA,08006,BARCELONA,ESPANYA,41.39647592777778,2.14893075,-----,-----
Restaurant Bar Ra,-,-----,Ciutat Vella,el Raval,BARCELONA,08001,BARCELONA,ESPANYA,41.381770933333335,2.1706049166666666,-----,-----
Restaurant Embat,-,-----,Eixample,la Dreta de l'Eixample,BARCELONA,08037,BARCELONA,ESPANYA,41.397031572222225,2.1669864444444444,-----,mailto:info@restaurantembat.es
Base Nàutica Municipal de la Mar Bella,-,-----,Sant Martí,Poble Nou,BARCELONA,08005,BARCELONA,ESPANYA,40.64370160833333,1.8165979444444444,-----,-----
Reial Cercle Artístic - Institut Barcelonès d'Art,-,-----,Ciutat Vella,el Barri Gòtic,BARCELONA,08002,BARCELONA,ESPANYA,41.38453696111111,2.174494388888889,-----,mailto:cercleartistic@cconline.es
 Té *La Maquinista,-,-----,Sant Andreu,el Bon Pastor,BARCELONA,08030,BARCELONA,ESPANYA,41.442532125,2.198353,http://www.cafeandte.com,-----
Natural Blend *La Maquinista,-,-----,Sant Andreu,el Bon Pastor,BARCELONA,08030,BARCELONA,ESPANYA,41.442532125,2.198353,-----,-----
Vilaplana *La Maquinista,-,-----,Sant Andreu,el Bon Pastor,BARCELONA,08030,BARCELONA,ESPANYA,41.442532125,2.198353,-----,-----
Dunkin Donuts *La Maquinista,-,-----,Sant Andreu,el Bon Pastor,BARCELONA,08030,BARCELONA,ESPANYA,41.442532125,2.198353,http://www.dunkindonuts.com,-----
Jamaica Coffee Shop *La Maquinista,-,-----,Sant Andreu,el Bon Pastor,BARCELONA,08030,BARCELONA,ESPANYA,41.44077756666666,2.198467194444444,http://www.jamaicacoffeeshop.es,-----
Cafeteria Cafe Quijano *La Maquinista,-,-----,Sant Andreu,el Bon Pastor,BARCELONA,08030,BARCELONA,ESPANYA,41.442532125,2.198353,-----,-----
Restaurant Bazaar *La Maquinista,-,-----,Sant Andreu,el Bon Pastor,BARCELONA,08030,BARCELONA,ESPANYA,41.442532125,2.198353,-----,-----
Restaurant Taverna Sagardi-Euskal *La Maquinista,-,-----,Sant Andreu,el Bon Pastor,BARCELONA,08030,BARCELONA,ESPANYA,41.442532125,2.198353,http://www.sagardi.com,mailto:reservas@sagardi.es
Res. Pastafiore *La Maquinista,-,-----,Sant Andreu,el Bon Pastor,BARCELONA,08030,BARCELONA,ESPANYA,41.442532125,2.198353,-----,mailto:pfbarcelonamaquinista@pansandcompany.com
Restaurant Pitamanía *La Maquinista,-,-----,Sant Andreu,el Bon Pastor,BARCELONA,08030,BARCELONA,ESPANYA,41.442532125,2.198353,-----,-----
Cerveseria Restaurant Gambrinus *La Maquinista,-,-----,Sant Andreu,el Bon Pastor,BARCELONA,08030,BARCELONA,ESPANYA,41.442532125,2.198353,-----,-----
Restaurant Lizarran *La Maquinista,-,-----,Sant Andreu,el Bon Pastor,BARCELONA,08030,BARCELONA,ESPANYA,41.442532125,2.198353,-----,mailto:dfcpromo@wanodoo.es
Restaurant TapasBar *La Maquinista,-,-----,Sant Andreu,el Bon Pastor,BARCELONA,08030,BARCELONA,ESPANYA,41.442532125,2.198353,http://www.tapasbar.es,-----
Restaurant La Granja *La Maquinista,-,-----,Sant Andreu,el Bon Pastor,BARCELONA,08030,BARCELONA,ESPANYA,41.442532125,2.198353,-----,-----
Restaurant Cantina Mariachi *La Maquinista,-,-----,Sant Andreu,el Bon Pastor,BARCELONA,08030,BARCELONA,ESPANYA,41.442532125,2.198353,http://www.cantina-mariachi.com,-----
Cerveseria Restaurant El Fraile *La Maquinista,-,-----,Sant Andreu,el Bon Pastor,BARCELONA,08030,BARCELONA,ESPANYA,41.442532125,2.198353,http://www.elfraile.net,mailto:elfraile@elfraile.net
Restaurant Trattoria Ginos *La Maquinista,-,-----,Sant Andreu,el Bon Pastor,BARCELONA,08030,BARCELONA,ESPANYA,41.442532125,2.198353,http://www.grupovips.com,-----
Bar Burger King *La Maquinista,-,-----,Sant Andreu,el Bon Pastor,BARCELONA,08030,BARCELONA,ESPANYA,41.442532125,2.198353,-----,-----
Bar McDonald's *La Maquinista,-,-----,Sant Andreu,el Bon Pastor,BARCELONA,08030,BARCELONA,ESPANYA,41.442532125,2.198353,-----,-----
 Company *La Maquinista,-,-----,Sant Andreu,el Bon Pastor,BARCELONA,08030,BARCELONA,ESPANYA,41.442532125,2.198353,http://www.pansandcompany.com,-----
Happy Crack *La Maquinista,-,-----,Sant Andreu,el Bon Pastor,BARCELONA,08030,BARCELONA,ESPANYA,41.442532125,2.198353,-----,-----
Restaurant La Lluna,-,-----,Ciutat Vella,el Barri Gòtic,BARCELONA,08002,BARCELONA,ESPANYA,41.38519257222222,2.1717846666666665,http://www.lallunarestaurant.com,mailto:info@lallunarestaurant.com
Bar Terra,-,-----,Sant Martí,el Parc i la Llacuna del Poblenou,BARCELONA,08005,BARCELONA,ESPANYA,41.394723633333335,2.1919009999999997,-----,-----
Hotel Intercontinental Princesa Sofía Barcelona,-,-----,Les Corts,la Maternitat i Sant Ramon,BARCELONA,08034,BARCELONA,ESPANYA,41.38652906944444,2.1231086944444444,http://www.expogrupo.com,mailto:psofiacontraste@expogrupo.com
Restaurant Sugar Club *World Trade Center,-,-----,Ciutat Vella,el Raval,BARCELONA,08039,BARCELONA,ESPANYA,41.371059611111114,2.1823455833333334,http://www.sugarclub-barcelona.com,mailto:info@sugarclub-barcelona.com
Bar Restaurant O'Carballo,-,-----,Gràcia,el Camp d'en Grassot i Gràcia Nova,BARCELONA,08025,BARCELONA,ESPANYA,41.40547245,2.1646219444444443,-----,-----
Bar Restaurant Xiscarexantar,-,-----,Sant Martí,el Parc i la Llacuna del Poblenou,BARCELONA,08018,BARCELONA,ESPANYA,41.396266097222224,2.1922189444444444,-----,-----
Restaurant Txalaparta,-,-----,Sants-Montjuïc,Sants,BARCELONA,08028,BARCELONA,ESPANYA,41.37554660833333,2.133652861111111,http://www.restaurantetxalaparta.com,mailto:txalaparta@restaurantetxalaparta.com
Restaurant Alta Taberna Paco Meralgo,-,-----,Eixample,l'Antiga Esquerra de l'Eixample,BARCELONA,08036,BARCELONA,ESPANYA,41.391713527777775,2.1524825,http://www.pacomeralgo.com,-----
Restaurant de Tapa Madre,-,-----,Eixample,la Dreta de l'Eixample,BARCELONA,08037,BARCELONA,ESPANYA,41.39694865,2.166505972222222,http://www.detapamadre.com,mailto:detapamadre@hotmail.com
Restaurant Carmelitas,-,-----,Ciutat Vella,el Raval,BARCELONA,08001,BARCELONA,ESPANYA,41.38181298888889,2.1693390555555556,http://www.carmelitas.biz,mailto:carmelitas@iservicesmail.com
Restaurant Torre d'Altamar,-,-----,Ciutat Vella,la Barceloneta,BARCELONA,08039,BARCELONA,ESPANYA,41.37314246111111,2.1879252777777776,http://www.torredealtamar.com,mailto:reserves@torredealtamar.com
Centre Garcilaso,-,-----,Sant Andreu,la Sagrera,BARCELONA,08027,BARCELONA,ESPANYA,41.422605125,2.1862141666666663,-----,-----
Cafeteria The Bagel Shop,-,-----,Gràcia,Gràcia,BARCELONA,08012,BARCELONA,ESPANYA,41.40042602222222,2.1577265555555556,-----,-----
Gran Casino de Barcelona,-,-----,Ciutat Vella,la Barceloneta,BARCELONA,08005,BARCELONA,ESPANYA,41.38708262222222,2.1965545,-----,-----
Bar Restaurant Arrel del Born,-,-----,Ciutat Vella,"Sant Pere, Santa Caterina i la Ribera",BARCELONA,08003,BARCELONA,ESPANYA,41.38636758888889,2.1830243055555556,http://www.arreldelborn.com,mailto:arrel@virtualsys.com
Bar Restaurant Cros Diagonal,-,-----,Eixample,l'Antiga Esquerra de l'Eixample,BARCELONA,08036,BARCELONA,ESPANYA,41.39419608888889,2.1512805555555556,-----,mailto:crosdiagonal@yahoo.es
Restaurant La Vinya del Senyor *Avinguda Sarrià,-,-----,Eixample,la Nova Esquerra de l'Eixample,BARCELONA,08029,BARCELONA,ESPANYA,41.389872269444446,2.146914111111111,-----,-----
Pizza Sapri *Gal.lileu,-,-----,Les Corts,les Corts,BARCELONA,08028,BARCELONA,ESPANYA,41.38615653888889,2.1312494444444443,http://www.pizzasapri.com,-----
Restaurant Las Fiestas del Convento,-,-----,Ciutat Vella,el Raval,BARCELONA,08001,BARCELONA,ESPANYA,41.38112295,2.1715035277777774,http://www.sebastiangroup.com,mailto:info@sebastiangroup.com
Cerveseria Restaurant Can Xapata,-,-----,Sarrià-Sant Gervasi,Sant Gervasi - Galvany,BARCELONA,08021,BARCELONA,ESPANYA,41.39420846944444,2.1469185,http://www.can-xapata.com,-----
Restaurant Japonès Prosperity Sushi,-,-----,Eixample,l'Antiga Esquerra de l'Eixample,BARCELONA,08007,BARCELONA,ESPANYA,41.390482399999996,2.1605586666666667,-----,-----
Restaurant La Polpa,-,-----,Eixample,l'Antiga Esquerra de l'Eixample,BARCELONA,08008,BARCELONA,ESPANYA,41.391198869444445,2.1576870277777775,-----,-----
Restaurant Xinés Memorias de China,-,-----,Sarrià-Sant Gervasi,Sant Gervasi - Galvany,BARCELONA,08006,BARCELONA,ESPANYA,41.400446655555555,2.149914361111111,http://www.memoriasdechina.es,mailto:info@memoriasdechina.es
Restaurant El Rovell del Born,-,-----,Ciutat Vella,"Sant Pere, Santa Caterina i la Ribera",BARCELONA,08003,BARCELONA,ESPANYA,41.38363045,2.1801911111111107,-----,-----
Café Restaurant L'Appart,-,-----,Eixample,la Dreta de l'Eixample,BARCELONA,08001,BARCELONA,ESPANYA,41.38585456388889,2.166529611111111,-----,-----
Restaurant La General de Tartas,-,-----,Sarrià-Sant Gervasi,Sant Gervasi - la Bonanova,BARCELONA,08017,BARCELONA,ESPANYA,41.403305394444445,2.1272723055555556,-----,-----
Restaurant Japonès Sumo *Centre de la Vila,-,-----,Sant Martí,la Vila Olímpica del Poblenou,BARCELONA,08005,BARCELONA,ESPANYA,41.390896519444446,2.1978509444444443,-----,-----
Restaurant Japonès Sumo *Diagonal Mar,-,-----,Sant Martí,Poble Nou,BARCELONA,08019,BARCELONA,ESPANYA,41.41042665833333,2.2164054444444448,-----,-----
Restaurant Chido One,-,-----,Gràcia,la Vila de Gràcia,BARCELONA,08012,BARCELONA,ESPANYA,41.40326995555555,2.1590226388888887,http://www.chidoone.com,mailto:info@chidoone.com
Bar Restaurant 12+1 Deport Restaurant,-,-----,Sant Martí,la Vila Olímpica del Poblenou,BARCELONA,08005,BARCELONA,ESPANYA,41.390896519444446,2.1978509444444443,http://www.12mas1.com,mailto:12mas1@12mas1.com
Cerveseria Restaurant Vildsvin,-,-----,Ciutat Vella,el Barri Gòtic,BARCELONA,08002,BARCELONA,ESPANYA,41.381973994444444,2.17633375,-----,mailto:reservas@sagardi.es
Xiringuito Splashh,-,-----,Ciutat Vella,Barceloneta,BARCELONA,08003,BARCELONA,ESPANYA,41.37586967777778,2.1911498055555554,-----,-----
Bar El 24,-,-----,Ciutat Vella,el Barri Gòtic,BARCELONA,08002,BARCELONA,ESPANYA,41.38120663888889,2.175372583333333,-----,-----
Restaurant Va de Vi,-,-----,Ciutat Vella,"Sant Pere, Santa Caterina i la Ribera",BARCELONA,08003,BARCELONA,ESPANYA,41.38419725,2.1811459166666665,-----,-----
Museu d'Història de Catalunya,-,-----,Ciutat Vella,la Barceloneta,BARCELONA,08039,BARCELONA,ESPANYA,41.3808077,2.185855722222222,-----,-----
Restaurant Self-service Polimenú*La Cup,-,-----,Les Corts,Pedralbes,BARCELONA,08034,BARCELONA,ESPANYA,41.38991789166666,2.115375111111111,http://www.restaurantenotable.com,mailto:notable@versin.com
Restaurant Notable *La Cup,-,-----,Les Corts,Pedralbes,BARCELONA,08034,BARCELONA,ESPANYA,41.387871077777774,2.114651777777778,http://www.restaurantenotable.com,mailto:polinotable@terra.es
Restaurant Els Pollos de Llull *Ramon Turró,-,-----,Sant Martí,la Vila Olímpica del Poblenou,BARCELONA,08005,BARCELONA,ESPANYA,41.39104871666667,2.190924222222222,http://www.elspollos.com,mailto:info@elspollos.com
Bar La Confiteria,-,-----,Ciutat Vella,el Raval,BARCELONA,08001,BARCELONA,ESPANYA,41.37548766111111,2.1679224166666664,-----,-----
Abba Sants Hotel,-,-----,Sants-Montjuïc,Sants,BARCELONA,08029,BARCELONA,ESPANYA,41.38256868055556,2.140019166666667,http://www.abbahoteles.com,mailto:abbasants@abbahoteles.com
Centro Riojano de Barcelona,-,-----,Ciutat Vella,el Raval,BARCELONA,08001,BARCELONA,ESPANYA,41.38147130833333,2.1673136666666664,-----,-----
Restaurant Ugarit Bruniquer,-,-----,Gràcia,la Vila de Gràcia,BARCELONA,08024,BARCELONA,ESPANYA,41.40514408333333,2.161355611111111,http://www.ugaritrestaurantsirio.com,-----
Restaurant Baravins,-,-----,Eixample,l'Antiga Esquerra de l'Eixample,BARCELONA,08036,BARCELONA,ESPANYA,41.38799417777778,2.151068638888889,-----,mailto:baravins@teleline.es
Restaurant Las Guindas,-,-----,Ciutat Vella,el Raval,BARCELONA,08001,BARCELONA,ESPANYA,41.375554372222226,2.168013722222222,-----,-----
Restaurant Gran Babilonia,-,-----,Sarrià-Sant Gervasi,Sant Gervasi - Galvany,BARCELONA,08021,BARCELONA,ESPANYA,41.39921979166667,2.1411856666666664,-----,-----
Fàbrica de Creació Ateneu Popular 9 Barris,-,-----,Nou Barris,la Trinitat Nova,BARCELONA,08042,BARCELONA,ESPANYA,41.44960580833333,2.1789486666666664,http://www.ateneu9b.net,mailto:info@ateneu9b.net
Restaurant Semon *Sta Fe Nou Mèxic,-,-----,Sarrià-Sant Gervasi,Sant Gervasi - Galvany,BARCELONA,08017,BARCELONA,ESPANYA,41.39443801944444,2.1372096666666667,-----,-----
Llibreria Casa del Libro *Passeig Gràcia,-,-----,Eixample,la Dreta de l'Eixample,BARCELONA,08007,BARCELONA,ESPANYA,41.392924102777776,2.1644761666666668,-----,-----
Cafeteria  Restaurant Living Bar,-,-----,Ciutat Vella,el Barri Gòtic,BARCELONA,08002,BARCELONA,ESPANYA,41.38526237222222,2.1744239999999997,-----,-----
Restaurant Luna de Estambul,-,-----,Eixample,la Nova Esquerra de l'Eixample,BARCELONA,08015,BARCELONA,ESPANYA,41.384356555555556,2.1527771388888888,-----,-----
Restaurant Tapas *Poble Espanyol,-,-----,Sants-Montjuïc,el Poble-sec,BARCELONA,08038,BARCELONA,ESPANYA,41.369117261111114,2.1467245833333335,-----,-----
Restaurant Bell Amic,-,-----,Ciutat Vella,el Barri Gòtic,BARCELONA,08002,BARCELONA,ESPANYA,41.38151735277778,2.1802831388888886,-----,mailto:lcanyas@wanadoo.es
Restaurant Frankfurt de l'Olla,-,-----,Gràcia,la Vila de Gràcia,BARCELONA,08012,BARCELONA,ESPANYA,41.402389774999996,2.156769222222222,-----,-----
El Cafè de Ferran,-,-----,Ciutat Vella,el Barri Gòtic,BARCELONA,08002,BARCELONA,ESPANYA,41.382338394444446,2.176605611111111,-----,-----
Bar Castells,-,-----,Ciutat Vella,el Raval,BARCELONA,08001,BARCELONA,ESPANYA,41.384119008333336,2.1697938333333333,-----,-----
Mirador Barcelona Restaurant El Cordero,-,-----,Nou Barris,Torre Baró,BARCELONA,08033,BARCELONA,ESPANYA,41.45258513888889,2.1792986666666665,-----,-----
Restaurant Marisqueria Las 5 Villas,-,-----,Sarrià-Sant Gervasi,les Tres Torres,BARCELONA,08017,BARCELONA,ESPANYA,41.39303746111111,2.130673888888889,-----,-----
Bar Restaurant Blat Net *Sitges,-,-----,Ciutat Vella,el Raval,BARCELONA,08001,BARCELONA,ESPANYA,41.38432688611111,2.1697629722222223,-----,-----
Bar Bocatta *Pl Sant Jaume,-,-----,Ciutat Vella,el Barri Gòtic,BARCELONA,08002,BARCELONA,ESPANYA,41.382959622222224,2.1772279166666664,http://www.bocatta.es,-----
Bar Restaurant La Perla *Numáncia,-,-----,Les Corts,les Corts,BARCELONA,08029,BARCELONA,ESPANYA,41.38429909166667,2.1382555555555554,-----,-----
Restaurant La Torreta de Sarrià,-,-----,Sarrià-Sant Gervasi,Sarrià,BARCELONA,08017,BARCELONA,ESPANYA,41.40865347222222,2.1099690833333336,-----,-----
Sweet Gaufre,-,-----,Ciutat Vella,el Raval,BARCELONA,08002,BARCELONA,ESPANYA,41.381531716666665,2.1726858055555556,-----,-----
Bar Restaurant A Canteira,-,-----,Gràcia,el Camp d'en Grassot i Gràcia Nova,BARCELONA,08037,BARCELONA,ESPANYA,41.40220458333333,2.165419527777778,-----,-----
Bar Bus Exprés,-,-----,Sant Andreu,Sant Andreu,BARCELONA,08030,BARCELONA,ESPANYA,41.431663066666665,2.1835384166666665,-----,-----
Restaurant La Taverna de Santa Maria,-,-----,Ciutat Vella,"Sant Pere, Santa Caterina i la Ribera",BARCELONA,08003,BARCELONA,ESPANYA,41.38310671388889,2.1811898888888885,-----,-----
Restaurant Ca La Monyos,-,-----,Eixample,l'Antiga Esquerra de l'Eixample,BARCELONA,08011,BARCELONA,ESPANYA,41.385050505555554,2.161671333333333,-----,-----
Restaurant Can Tornem-hi,-,-----,Les Corts,Pedralbes,BARCELONA,08034,BARCELONA,ESPANYA,41.386211877777775,2.112228638888889,-----,-----
Restaurant All i Oli,-,-----,Nou Barris,Porta,BARCELONA,08016,BARCELONA,ESPANYA,41.43137043333333,2.1812246388888887,http://www.rbmesa.com/allioli.htm,-----
Restaurant Sal i Pebre,-,-----,Les Corts,Pedralbes,BARCELONA,08034,BARCELONA,ESPANYA,41.386552183333336,2.112660388888889,-----,-----
Restaurant Triton,-,-----,Les Corts,Pedralbes,BARCELONA,08034,BARCELONA,ESPANYA,41.38667828055556,2.1126066666666667,http://www.rbmesa.com/triton.htm,mailto:rbmesa@noftly.es
Bar  Aptc,-,-----,Eixample,el Fort Pienc,BARCELONA,08010,BARCELONA,ESPANYA,41.392953741666666,2.1798293055555553,-----,-----
Bar Restaurant Paco Alcalde,-,-----,Ciutat Vella,la Barceloneta,BARCELONA,08003,BARCELONA,ESPANYA,41.377319675,2.1897478055555553,http://www.pacoalcalde-restaurante.com,-----
Bar Restaurant Ancora,-,-----,Ciutat Vella,la Barceloneta,BARCELONA,08003,BARCELONA,ESPANYA,41.37801235,2.1884919166666665,-----,-----
Bar Restaurant Salamanca,-,-----,Ciutat Vella,la Barceloneta,BARCELONA,08003,BARCELONA,ESPANYA,41.37869370833334,2.1907221666666663,http://www.gruposilvestre.com,-----
Restaurant Salamanca,-,-----,Ciutat Vella,la Barceloneta,BARCELONA,08003,BARCELONA,ESPANYA,41.37860735277778,2.191201583333333,http://www.gruposilvestre.com,-----
Restaurant Monguzan,-,-----,Sant Martí,el Parc i la Llacuna del Poblenou,BARCELONA,08018,BARCELONA,ESPANYA,41.40074077222222,2.1946453611111107,-----,-----
Bodega Costa Brava,-,-----,Gràcia,la Vila de Gràcia,BARCELONA,08024,BARCELONA,ESPANYA,41.407795602777774,2.15520625,-----,-----
Restaurant Tastavins - Bodega Brugal,-,-----,Les Corts,les Corts,BARCELONA,08029,BARCELONA,ESPANYA,41.38824334722222,2.140496222222222,-----,-----
Restaurant Mercè Vins,-,-----,Ciutat Vella,el Barri Gòtic,BARCELONA,08002,BARCELONA,ESPANYA,41.385930530555555,2.1742766666666666,-----,-----
Bar Restaurant El Pati,-,-----,Ciutat Vella,el Barri Gòtic,BARCELONA,08002,BARCELONA,ESPANYA,41.386362572222225,2.174097944444444,-----,-----
Café Loyola,-,-----,Sarrià-Sant Gervasi,Sant Gervasi - Galvany,BARCELONA,08021,BARCELONA,ESPANYA,41.395630491666665,2.1441989444444443,-----,-----
Restaurant Mariona,-,-----,Sarrià-Sant Gervasi,Sant Gervasi - Galvany,BARCELONA,08021,BARCELONA,ESPANYA,41.39596736111111,2.1434695,http://www.marionarestaurant.com,-----
Bar Restaurant Panchito *Amigo,-,-----,Sarrià-Sant Gervasi,Sant Gervasi - Galvany,BARCELONA,08021,BARCELONA,ESPANYA,41.39617313888889,2.1432106388888887,http://www.panchito.com,-----
Restaurant La Parrilla,-,-----,Sarrià-Sant Gervasi,Sant Gervasi - Galvany,BARCELONA,08021,BARCELONA,ESPANYA,41.396771961111114,2.142732,-----,-----
Bar Restaurant Don Zangano,-,-----,Sarrià-Sant Gervasi,Sant Gervasi - Galvany,BARCELONA,08021,BARCELONA,ESPANYA,41.39745632222222,2.1418512777777776,-----,mailto:donzangano@gmail.com
Restaurant Vol de Nit,-,-----,Sarrià-Sant Gervasi,les Tres Torres,BARCELONA,08017,BARCELONA,ESPANYA,41.39823899444444,2.1278901666666665,-----,-----
Restaurant Ca La Nuri Eixample *Consell de Cent,-,-----,Eixample,la Dreta de l'Eixample,BARCELONA,08009,BARCELONA,ESPANYA,41.393736088888886,2.169034111111111,http://www.calanuri.com,mailto:info@calanuri.com
Umma Gumma,-,-----,Sant Martí,el Camp de l'Arpa del Clot,BARCELONA,08026,BARCELONA,ESPANYA,41.40814104722222,2.18599175,-----,-----
Bar Restaurant Rincón,-,-----,Horta-Guinardó,la Font d'en Fargues,BARCELONA,08032,BARCELONA,ESPANYA,41.42153398611111,2.158957722222222,-----,-----
Restaurant Pizzeria La Pizza Nostra,-,-----,Ciutat Vella,"Sant Pere, Santa Caterina i la Ribera",BARCELONA,08003,BARCELONA,ESPANYA,41.384539680555555,2.1817947777777777,-----,mailto:auroraboreal7@hotmail.com
Bar Kentucky,-,-----,Ciutat Vella,el Raval,BARCELONA,08001,BARCELONA,ESPANYA,41.37770655277778,2.174696,-----,-----
Bar Restaurant  l'Ovella Negra,-,-----,Ciutat Vella,el Raval,BARCELONA,08001,BARCELONA,ESPANYA,41.38445961944444,2.1695940277777774,-----,-----
Bar Restaurant Noni,-,-----,Horta-Guinardó,la Teixonera,BARCELONA,08035,BARCELONA,ESPANYA,41.422007952777776,2.1422234444444443,-----,-----
Restaurant La Flauta,-,-----,Eixample,l'Antiga Esquerra de l'Eixample,BARCELONA,08011,BARCELONA,ESPANYA,41.38690949722222,2.1611048888888886,-----,-----
Restaurant El Puma,-,-----,Eixample,l'Antiga Esquerra de l'Eixample,BARCELONA,08011,BARCELONA,ESPANYA,41.387709477777776,2.1604122777777777,-----,-----
Restaurant Japonès Yamadori,-,-----,Eixample,l'Antiga Esquerra de l'Eixample,BARCELONA,08011,BARCELONA,ESPANYA,41.38886756388889,2.158884111111111,http://www.yashimtagrupo.com,-----
Restaurant Chicoa S.A.,-,-----,Eixample,l'Antiga Esquerra de l'Eixample,BARCELONA,08036,BARCELONA,ESPANYA,41.389261858333334,2.157997611111111,-----,-----
Bar Restaurant Racó d'en Balta,-,-----,Eixample,l'Antiga Esquerra de l'Eixample,BARCELONA,08036,BARCELONA,ESPANYA,41.391340988888885,2.1552463055555555,http://www.racodenbalta.com,-----
Bar Ros Negre,-,-----,Eixample,l'Antiga Esquerra de l'Eixample,BARCELONA,08036,BARCELONA,ESPANYA,41.3930922,2.15288675,-----,-----
Restaurant El Patio Andaluz *Aribau,-,-----,Sarrià-Sant Gervasi,Sant Gervasi - Galvany,BARCELONA,08006,BARCELONA,ESPANYA,41.395777025,2.1497253888888888,-----,-----
Bar Restaurant La Soca,-,-----,Sarrià-Sant Gervasi,Sant Gervasi - Galvany,BARCELONA,08006,BARCELONA,ESPANYA,41.397889488888886,2.147435861111111,-----,-----
Restaurant Cerveseria O'Brindis,-,-----,Sarrià-Sant Gervasi,Sant Gervasi - Galvany,BARCELONA,08006,BARCELONA,ESPANYA,41.398063844444444,2.1472397777777776,-----,-----
Restaurant Arizala 60,-,-----,Les Corts,la Maternitat i Sant Ramon,BARCELONA,08028,BARCELONA,ESPANYA,41.37844099722222,2.123846277777778,-----,-----
Bar Restaurant Jumilla,-,-----,Sarrià-Sant Gervasi,Sant Gervasi - la Bonanova,BARCELONA,08022,BARCELONA,ESPANYA,41.40318369722222,2.1347768055555556,-----,-----
Bar Maria Castaña,-,-----,Sarrià-Sant Gervasi,Sant Gervasi - Galvany,BARCELONA,08006,BARCELONA,ESPANYA,41.398138180555556,2.1531310277777775,-----,-----
Bar Restaurant Torrotito,-,-----,Sarrià-Sant Gervasi,Sant Gervasi - Galvany,BARCELONA,08006,BARCELONA,ESPANYA,41.40100790555555,2.1493082777777777,-----,-----
Restaurant Fort Pienc,-,-----,Eixample,el Fort Pienc,BARCELONA,08013,BARCELONA,ESPANYA,41.394292875,2.1793708888888887,-----,-----
Bar Restaurant Bierzo,-,-----,Eixample,el Fort Pienc,BARCELONA,08013,BARCELONA,ESPANYA,41.39757304166667,2.1841246944444443,-----,-----
Bar Restaurant Piratas,-,-----,Eixample,el Fort Pienc,BARCELONA,08013,BARCELONA,ESPANYA,41.39784709166667,2.1841205555555554,-----,-----
Restaurant El Gallo Quirico,-,-----,Ciutat Vella,el Barri Gòtic,BARCELONA,08002,BARCELONA,ESPANYA,41.38105225,2.1770046111111108,-----,-----
Bar Casa El Agüelo,-,-----,Ciutat Vella,el Barri Gòtic,BARCELONA,08002,BARCELONA,ESPANYA,41.38030763611111,2.179155722222222,-----,-----
Restaurant Pitarra,-,-----,Ciutat Vella,el Barri Gòtic,BARCELONA,08002,BARCELONA,ESPANYA,41.380238480555555,2.179166472222222,http://www.restaurantpitarra.cat,mailto:info@restaurantpitarra.cat
Bar Restaurant Rodeo,-,-----,Sants-Montjuïc,la Bordeta,BARCELONA,08014,BARCELONA,ESPANYA,41.36769998055556,2.1339270277777778,-----,-----
Restaurant O'Bierzo,-,-----,Sants-Montjuïc,el Poble Sec,BARCELONA,08004,BARCELONA,ESPANYA,41.37409187777778,2.1688276944444445,http://www.obierzo.com,-----
Restaurant Soulet,-,-----,Eixample,la Dreta de l'Eixample,BARCELONA,08009,BARCELONA,ESPANYA,41.39797259722222,2.169397083333333,-----,-----
Restaurant Mesón La Tinaja,-,-----,Gràcia,el Camp d'en Grassot i Gràcia Nova,BARCELONA,08037,BARCELONA,ESPANYA,41.402067091666666,2.16408175,-----,-----
Cerveseria Snack Bar Seven,-,-----,Eixample,la Dreta de l'Eixample,BARCELONA,08007,BARCELONA,ESPANYA,41.389751258333334,2.1622268055555556,-----,-----
Bar Restaurant La Brochette,-,-----,Eixample,la Dreta de l'Eixample,BARCELONA,08008,BARCELONA,ESPANYA,41.3929944,2.157935833333333,-----,-----
Restaurant Trattoria Topogigio,-,-----,Eixample,l'Antiga Esquerra de l'Eixample,BARCELONA,08008,BARCELONA,ESPANYA,41.393679891666665,2.1566721944444445,-----,-----
Bar Restaurant Baztan,-,-----,Eixample,l'Antiga Esquerra de l'Eixample,BARCELONA,08008,BARCELONA,ESPANYA,41.393841530555555,2.1561345833333334,-----,-----
Cervesseria Restaurant Tra-Bal,-,-----,Sarrià-Sant Gervasi,Sant Gervasi - Galvany,BARCELONA,08006,BARCELONA,ESPANYA,41.39776523333333,2.1515389166666665,-----,-----
Restaurant Creperie Bretonne,-,-----,Sarrià-Sant Gervasi,Sant Gervasi - Galvany,BARCELONA,08006,BARCELONA,ESPANYA,41.400923980555554,2.1481261666666667,-----,-----
Restaurant La Carreta,-,-----,Sarrià-Sant Gervasi,el Putxet i el Farró,BARCELONA,08006,BARCELONA,ESPANYA,41.40390738611111,2.142312638888889,-----,-----
Bar Bavara,-,-----,Sarrià-Sant Gervasi,el Putxet i el Farró,BARCELONA,08022,BARCELONA,ESPANYA,41.41003151666666,2.1374624166666667,-----,-----
Bar Restaurant Hermanos Loureido,-,-----,Ciutat Vella,"Sant Pere, Santa Caterina i la Ribera",BARCELONA,08003,BARCELONA,ESPANYA,41.388581188888885,2.1801399166666666,-----,-----
Bar Restaurant La Cova Fumada,-,-----,Ciutat Vella,la Barceloneta,BARCELONA,08003,BARCELONA,ESPANYA,41.379300244444444,2.1891936666666663,-----,-----
Restaurant Ciutat Comtal,-,-----,Ciutat Vella,el Barri Gòtic,BARCELONA,08002,BARCELONA,ESPANYA,41.38217306666667,2.1751691666666666,-----,-----
Bar Restaurant El Portalon,-,-----,Ciutat Vella,el Barri Gòtic,BARCELONA,08002,BARCELONA,ESPANYA,41.38287701666667,2.174607472222222,-----,-----
Restaurant Egipte-Rambla,-,-----,Ciutat Vella,el Raval,BARCELONA,08002,BARCELONA,ESPANYA,41.381430091666665,2.172774472222222,http://www.egipte_rambla.com,-----
Bar Bocatta *La Rambla,-,-----,Ciutat Vella,el Raval,BARCELONA,08002,BARCELONA,ESPANYA,41.38192496111111,2.1723339444444445,http://www.bocatta.es,-----
Restaurant Viena *La Rambla,-,-----,Ciutat Vella,el Raval,BARCELONA,08002,BARCELONA,ESPANYA,41.38414511111111,2.170722777777778,http://www.viena.es,-----
Restaurant La Poma,-,-----,Ciutat Vella,el Raval,BARCELONA,08002,BARCELONA,ESPANYA,41.38434323055556,2.170566194444444,http://www.restaurantelapoma.com,mailto:info@restaurantelapoma.com
 Company *La Rambla,-,-----,Ciutat Vella,el Raval,BARCELONA,08002,BARCELONA,ESPANYA,41.38462553888889,2.1703563888888886,http://www.pansandcompany.com,-----
Restaurant Moka,-,-----,Ciutat Vella,el Barri Gòtic,BARCELONA,08002,BARCELONA,ESPANYA,41.38409141388889,2.171281611111111,-----,-----
Bar Restaurant Baviera,-,-----,Ciutat Vella,el Raval,BARCELONA,08002,BARCELONA,ESPANYA,41.384956386111114,2.1701017777777776,-----,-----
Bar Restaurant Núria *La Rambla,-,-----,Ciutat Vella,el Raval,BARCELONA,08002,BARCELONA,ESPANYA,41.38521851666667,2.1699009166666667,http://www.nuria.com,mailto:nuria@nuria.com
"Bar Burger King *Rambla, 135",-,-----,Ciutat Vella,el Raval,BARCELONA,08002,BARCELONA,ESPANYA,41.385292783333334,2.169844555555555,-----,-----
Restaurant O'Eiro,-,-----,Les Corts,les Corts,BARCELONA,08029,BARCELONA,ESPANYA,41.383452575,2.1391229444444444,-----,-----
Restaurant Claudia,-,-----,Sarrià-Sant Gervasi,Sant Gervasi - la Bonanova,BARCELONA,08022,BARCELONA,ESPANYA,41.405004425,2.132578638888889,-----,-----
Bar Restaurant Cadí 2,-,-----,Sant Martí,el Besòs i el Maresme,BARCELONA,08019,BARCELONA,ESPANYA,41.416048330555554,2.208827861111111,-----,-----
Restaurant Creperia Crep Nova,-,-----,Sarrià-Sant Gervasi,Sant Gervasi - la Bonanova,BARCELONA,08022,BARCELONA,ESPANYA,41.406055663888885,2.131507111111111,-----,-----
Restaurant Asador del Mar,-,-----,Sarrià-Sant Gervasi,Sant Gervasi - Galvany,BARCELONA,08017,BARCELONA,ESPANYA,41.39246398888889,2.137280222222222,http://www.monchos.com,-----
Restaurant La Carassa,-,-----,Ciutat Vella,"Sant Pere, Santa Caterina i la Ribera",BARCELONA,08003,BARCELONA,ESPANYA,41.38386118611111,2.180482083333333,-----,-----
Restaurant El Asador de Burgos,-,-----,Eixample,la Dreta de l'Eixample,BARCELONA,08009,BARCELONA,ESPANYA,41.396273655555554,2.1671212222222223,-----,-----
Café Arabia,-,-----,Gràcia,la Vila de Gràcia,BARCELONA,08024,BARCELONA,ESPANYA,41.40496543888889,2.1612940277777777,-----,-----
Restaurant Patxi,-,-----,Gràcia,la Vila de Gràcia,BARCELONA,08012,BARCELONA,ESPANYA,41.3984023,2.159794277777778,-----,-----
Restaurant Cafeteria Piper's,-,-----,Eixample,l'Antiga Esquerra de l'Eixample,BARCELONA,08036,BARCELONA,ESPANYA,41.39221051111111,2.1469714166666667,-----,mailto:el_pipers@inicia.es
Restaurant Santiaguiño,-,-----,Eixample,l'Antiga Esquerra de l'Eixample,BARCELONA,08029,BARCELONA,ESPANYA,41.39089918611111,2.1451611111111113,http://www.santiaguino.com,-----
Restaurant Eucaliptus,-,-----,Ciutat Vella,el Raval,BARCELONA,08001,BARCELONA,ESPANYA,41.38441071111111,2.170289111111111,http://www.eucaliptus.com,-----
Bar Restaurant Julivert Meu,-,-----,Ciutat Vella,el Raval,BARCELONA,08001,BARCELONA,ESPANYA,41.38426831111111,2.1701705833333333,-----,-----
Restaurant Bioasis,-,-----,Ciutat Vella,el Raval,BARCELONA,08001,BARCELONA,ESPANYA,41.38433344166667,2.1701578055555553,-----,-----
Restaurant La Fragua,-,-----,Ciutat Vella,el Raval,BARCELONA,08001,BARCELONA,ESPANYA,41.37924691388889,2.1691652777777777,-----,-----
Restaurant La Queixalada d'en Xavi,-,-----,Eixample,Sant Antoni,BARCELONA,08015,BARCELONA,ESPANYA,41.37649325833333,2.159077583333333,http://www.laqueixaladadenxavi.com,mailto:contacto@laqueixaladadenxavi.com
Restaurant Xinès Hong-Kong,-,-----,Eixample,la Nova Esquerra de l'Eixample,BARCELONA,08015,BARCELONA,ESPANYA,41.38251763611111,2.151469777777778,-----,-----
Restaurant La Font del Bosc,-,-----,Eixample,la Nova Esquerra de l'Eixample,BARCELONA,08015,BARCELONA,ESPANYA,41.382647419444446,2.1509359999999997,http://www.lafontdelbosc.com,-----
Bar Restaurant Pizzeria La Bella Napoli,-,-----,Eixample,la Nova Esquerra de l'Eixample,BARCELONA,08029,BARCELONA,ESPANYA,41.38598286388889,2.1468783333333334,-----,-----
Bar Restaurant El Lagarto de Jaen,-,-----,Horta-Guinardó,el Carmel,BARCELONA,08032,BARCELONA,ESPANYA,41.421272027777775,2.1564123333333334,-----,-----
Restaurant Xinès Orquidea,-,-----,Sarrià-Sant Gervasi,Sant Gervasi - Galvany,BARCELONA,08021,BARCELONA,ESPANYA,41.393723533333336,2.144874888888889,-----,-----
La Flama,-,-----,Sarrià-Sant Gervasi,Sant Gervasi - Galvany,BARCELONA,08021,BARCELONA,ESPANYA,41.393723533333336,2.144874888888889,-----,-----
Restaurant Marisqueria Marisk,-,-----,Sarrià-Sant Gervasi,Sant Gervasi - Galvany,BARCELONA,08021,BARCELONA,ESPANYA,41.3947051,2.1433175277777776,http://www.marisk.net,-----
Bar Restaurant Kentucky Fried Chicken *F Macià,-,-----,Eixample,l'Antiga Esquerra de l'Eixample,BARCELONA,08029,BARCELONA,ESPANYA,41.39221535833333,2.144740722222222,-----,-----
Restaurant Bar Indians,-,-----,Sant Andreu,el Congrés i els Indians,BARCELONA,08027,BARCELONA,ESPANYA,41.42163551388889,2.1811572777777775,-----,-----
Restaurant Canet,-,-----,Sarrià-Sant Gervasi,Sarrià,BARCELONA,08017,BARCELONA,ESPANYA,41.398785124999996,2.1236948333333334,http://www.canetsarria.es,-----
Restaurant Garlana,-,-----,Les Corts,Pedralbes,BARCELONA,08034,BARCELONA,ESPANYA,41.39110924444444,2.1255860277777776,-----,-----
Bar Puzzler's,-,-----,Les Corts,la Maternitat i Sant Ramon,BARCELONA,08028,BARCELONA,ESPANYA,41.386391358333334,2.126331583333333,-----,-----
Bar Méndez,-,-----,Horta-Guinardó,el Carmel,BARCELONA,08032,BARCELONA,ESPANYA,41.423519049999996,2.157970722222222,-----,-----
Restaurant Quo Vadis,-,-----,Ciutat Vella,el Raval,BARCELONA,08001,BARCELONA,ESPANYA,41.382685583333334,2.171150222222222,http://www.restaurantquovadis.com,mailto:info@restaurantquovadis.com
Restaurant Nou Miño,-,-----,Ciutat Vella,el Raval,BARCELONA,08001,BARCELONA,ESPANYA,41.38243469444444,2.1707145277777777,-----,-----
Bar Muy buenas,-,-----,Ciutat Vella,el Raval,BARCELONA,08001,BARCELONA,ESPANYA,41.380907819444445,2.168012083333333,-----,-----
Restaurant Mesón David,-,-----,Ciutat Vella,el Raval,BARCELONA,08001,BARCELONA,ESPANYA,41.376803475,2.168512444444444,-----,-----
Restaurant Cafetetia Jardí,-,-----,Eixample,la Sagrada Família,BARCELONA,08013,BARCELONA,ESPANYA,41.406312022222224,2.1805578333333333,-----,-----
Bar Cuatro Puertas,-,-----,Nou Barris,Vilapicina i la Torre Llobeta,BARCELONA,08031,BARCELONA,ESPANYA,41.428294699999995,2.170878138888889,-----,-----
Bar Restaurant Chapolín,-,-----,Gràcia,Vallcarca i els Penitents,BARCELONA,08023,BARCELONA,ESPANYA,41.41676993888888,2.139978222222222,-----,-----
Restaurant Reguant,-,-----,Eixample,Sant Antoni,BARCELONA,08011,BARCELONA,ESPANYA,41.382530458333335,2.1623827777777778,-----,-----
Bar Taverna de Mastia,-,-----,Eixample,Sant Antoni,BARCELONA,08011,BARCELONA,ESPANYA,41.38311613888889,2.162018944444444,-----,-----
Xarcuteria - Càtering Les Gourmets,-,-----,Eixample,l'Antiga Esquerra de l'Eixample,BARCELONA,08036,BARCELONA,ESPANYA,41.38784265555555,2.155714777777778,http://www.lesgourmets.es,mailto:gourmets@lesgourmets.es
Restaurant Slavia,-,-----,Eixample,l'Antiga Esquerra de l'Eixample,BARCELONA,08036,BARCELONA,ESPANYA,41.39258153888889,2.1490850277777778,-----,-----
Restaurant El Mussol *Casp,-,-----,Eixample,la Dreta de l'Eixample,BARCELONA,08010,BARCELONA,ESPANYA,41.38935563611111,2.1705158888888887,http://www.angrup.com,-----
Restaurant La Fogaccia,-,-----,Sarrià-Sant Gervasi,les Tres Torres,BARCELONA,08017,BARCELONA,ESPANYA,41.39627117777778,2.1290583055555556,-----,-----
Bar Gines,-,-----,Horta-Guinardó,el Baix Guinardó,BARCELONA,08025,BARCELONA,ESPANYA,41.41141991944444,2.171667472222222,-----,-----
Bar Restaurant Kentucky Fried Chicken *Pl Catalunya,-,-----,Eixample,la Dreta de l'Eixample,BARCELONA,08007,BARCELONA,ESPANYA,41.387085191666664,2.168387861111111,-----,-----
Bar Restaurant Matamala,-,-----,Eixample,la Dreta de l'Eixample,BARCELONA,08007,BARCELONA,ESPANYA,41.388010066666666,2.1673658055555554,http://www.matamalarestaurant.com,-----
Forn de Sant Jaume,-,-----,Eixample,la Dreta de l'Eixample,BARCELONA,08007,BARCELONA,ESPANYA,41.39067182777778,2.164272361111111,-----,-----
Bar Restaurant La Bodegueta,-,-----,Eixample,la Dreta de l'Eixample,BARCELONA,08008,BARCELONA,ESPANYA,41.393534377777776,2.1603420555555553,-----,-----
Restaurant Cal Lluís,-,-----,Ciutat Vella,el Raval,BARCELONA,08001,BARCELONA,ESPANYA,41.37811270277778,2.1653089166666666,-----,-----
Restaurant Pizzeria Les Nenes,-,-----,Eixample,el Fort Pienc,BARCELONA,08013,BARCELONA,ESPANYA,41.39898203055556,2.1789817777777776,-----,-----
Restaurant Rincón de León,-,-----,Eixample,la Sagrada Família,BARCELONA,08013,BARCELONA,ESPANYA,41.40232928333333,2.174921361111111,-----,-----
Bar Restaurant Can Sole,-,-----,Ciutat Vella,el Barri Gòtic,BARCELONA,08002,BARCELONA,ESPANYA,41.37881345833333,2.179820722222222,-----,-----
Restaurant Sailor,-,-----,Ciutat Vella,el Barri Gòtic,BARCELONA,08002,BARCELONA,ESPANYA,41.38041348888889,2.181026333333333,-----,-----
Café Restaurant La Flor del Norte,-,-----,Ciutat Vella,el Barri Gòtic,BARCELONA,08002,BARCELONA,ESPANYA,41.380083791666664,2.1807636944444444,-----,-----
Restaurant Rias Baixas,-,-----,Les Corts,la Maternitat i Sant Ramon,BARCELONA,08028,BARCELONA,ESPANYA,41.379740866666666,2.126822138888889,-----,-----
Restaurant Tragaluz,-,-----,Eixample,la Dreta de l'Eixample,BARCELONA,08008,BARCELONA,ESPANYA,41.39472680555556,2.1604045555555556,http://www.grupotragaluz.com,mailto:grupotragaluz@grupotragaluz.com
Restaurant Taverna Can Margarit,-,-----,Sants-Montjuïc,el Poble Sec,BARCELONA,08004,BARCELONA,ESPANYA,41.37317449444444,2.160032972222222,-----,-----
Restaurant Japonès Tokyo Sushi,-,-----,Ciutat Vella,el Barri Gòtic,BARCELONA,08002,BARCELONA,ESPANYA,41.38652019166667,2.1734545555555553,-----,-----
Bar Restaurant El Pollo Campero,-,-----,Ciutat Vella,el Raval,BARCELONA,08001,BARCELONA,ESPANYA,41.37760544722222,2.172630333333333,-----,-----
Restaurant Can Miseries,-,-----,Eixample,Sant Antoni,BARCELONA,08015,BARCELONA,ESPANYA,41.380864525,2.158172527777778,-----,-----
Restaurant As Vieiras,-,-----,Eixample,la Nova Esquerra de l'Eixample,BARCELONA,08015,BARCELONA,ESPANYA,41.38353182777778,2.154282333333333,-----,-----
Restaurant Mimmo's,-,-----,Les Corts,la Maternitat i Sant Ramon,BARCELONA,08028,BARCELONA,ESPANYA,41.37641497222222,2.1233931666666668,-----,-----
Restaurant Bar Bodega Casa Jaume,-,-----,Eixample,l'Antiga Esquerra de l'Eixample,BARCELONA,08011,BARCELONA,ESPANYA,41.38592543055555,2.159021,-----,-----
Bar Restaurant Pica-Pica,-,-----,Eixample,l'Antiga Esquerra de l'Eixample,BARCELONA,08011,BARCELONA,ESPANYA,41.385883630555554,2.158602138888889,-----,-----
Restaurant Casa Dario,-,-----,Eixample,l'Antiga Esquerra de l'Eixample,BARCELONA,08011,BARCELONA,ESPANYA,41.387550258333334,2.1611806666666666,http://www.casadario.com,mailto:casadario@gmail.com
Bar Cerveseria d'Or,-,-----,Eixample,la Dreta de l'Eixample,BARCELONA,08007,BARCELONA,ESPANYA,41.39053021111111,2.1647725277777776,-----,-----
Restaurant El Rodizio,-,-----,Eixample,la Dreta de l'Eixample,BARCELONA,08009,BARCELONA,ESPANYA,41.395351130555554,2.171186972222222,-----,-----
Xapacó,-,-----,Eixample,la Dreta de l'Eixample,BARCELONA,08009,BARCELONA,ESPANYA,41.39560991111111,2.171531611111111,-----,-----
Bodega de l'Avi Manel,-,-----,Eixample,la Dreta de l'Eixample,BARCELONA,08009,BARCELONA,ESPANYA,41.39716175833333,2.173971361111111,-----,-----
Bar Restaurant Mesón el Paco,-,-----,Eixample,la Sagrada Família,BARCELONA,08013,BARCELONA,ESPANYA,41.404627641666664,2.1835622499999996,-----,-----
Restaurant La Llimona,-,-----,Les Corts,les Corts,BARCELONA,08029,BARCELONA,ESPANYA,41.38791828055555,2.136315777777778,-----,-----
Cafeteria Restaurant El Pibe,-,-----,Ciutat Vella,el Barri Gòtic,BARCELONA,08002,BARCELONA,ESPANYA,41.38556396388889,2.175218833333333,-----,-----
Bar Orlyt,-,-----,Eixample,l'Antiga Esquerra de l'Eixample,BARCELONA,08036,BARCELONA,ESPANYA,41.39063716388889,2.151335083333333,-----,-----
Restaurant Japonès Koyuki,-,-----,Eixample,l'Antiga Esquerra de l'Eixample,BARCELONA,08036,BARCELONA,ESPANYA,41.39296734444444,2.154807111111111,-----,-----
Restaurant Cafeteria El Vell Camembert,-,-----,Eixample,la Dreta de l'Eixample,BARCELONA,08008,BARCELONA,ESPANYA,41.394346605555555,2.156638638888889,-----,-----
Restaurant Cafeteria Justinianus,-,-----,Eixample,la Dreta de l'Eixample,BARCELONA,08008,BARCELONA,ESPANYA,41.39556402777778,2.158244388888889,http://www.justinianus.es,-----
Restaurant Japonès Yu Ja,-,-----,Gràcia,la Vila de Gràcia,BARCELONA,08037,BARCELONA,ESPANYA,41.397955494444446,2.1610365277777777,-----,-----
Restaurant Xinès Zhao Yang,-,-----,Gràcia,la Vila de Gràcia,BARCELONA,08037,BARCELONA,ESPANYA,41.39970279722222,2.1633490833333333,-----,-----
Crem Café,-,-----,Eixample,la Sagrada Família,BARCELONA,08025,BARCELONA,ESPANYA,41.405420802777776,2.1713302777777774,-----,-----
Bar Restaurant Los Jardines,-,-----,Les Corts,les Corts,BARCELONA,08029,BARCELONA,ESPANYA,41.38984405555556,2.140521888888889,-----,-----
Bar Restaurant Crespo,-,-----,Sant Martí,Provençals del Poblenou,BARCELONA,08019,BARCELONA,ESPANYA,41.408704288888885,2.2030844722222223,-----,-----
Bar Restaurant Copa d'Or,-,-----,Les Corts,la Maternitat i Sant Ramon,BARCELONA,08028,BARCELONA,ESPANYA,41.378501722222225,2.11943975,-----,-----
Bar Restaurant La Jarra,-,-----,Les Corts,la Maternitat i Sant Ramon,BARCELONA,08028,BARCELONA,ESPANYA,41.378501722222225,2.11943975,-----,-----
Restaurant El Pozairon,-,-----,Eixample,la Nova Esquerra de l'Eixample,BARCELONA,08015,BARCELONA,ESPANYA,41.380204575,2.153313861111111,-----,-----
Mediterrani Restaurant,-,-----,Eixample,la Nova Esquerra de l'Eixample,BARCELONA,08015,BARCELONA,ESPANYA,41.38105104722222,2.154440333333333,-----,-----
Bar Restaurant El Bierzo a Tope,-,-----,Eixample,l'Antiga Esquerra de l'Eixample,BARCELONA,08011,BARCELONA,ESPANYA,41.384200863888886,2.158627,-----,-----
Restaurant Racó d'en Cesc,-,-----,Eixample,l'Antiga Esquerra de l'Eixample,BARCELONA,08011,BARCELONA,ESPANYA,41.386186841666664,2.161270583333333,-----,-----
Bar Restaurant Taormina,-,-----,Eixample,la Dreta de l'Eixample,BARCELONA,08007,BARCELONA,ESPANYA,41.38992973333333,2.1666028055555553,-----,-----
Restaurant Portolés,-,-----,Eixample,la Dreta de l'Eixample,BARCELONA,08013,BARCELONA,ESPANYA,41.39693057777778,2.1755696666666666,-----,-----
Restaurant Gorría,-,-----,Eixample,el Fort Pienc,BARCELONA,08013,BARCELONA,ESPANYA,41.39873833611111,2.1779884722222222,http://www.restaurantegorria.com,mailto:info@restaurantegorria.com
Restaurant El Asador de Aranda *Av Tibidabo,-,-----,Sarrià-Sant Gervasi,Sant Gervasi - la Bonanova,BARCELONA,08022,BARCELONA,ESPANYA,41.413462180555555,2.1344620555555553,http://www.asadoraranda.com,mailto:asador@asadoraranda.com
Restaurant  Bar Musical Danzatoria,-,-----,Sarrià-Sant Gervasi,Sant Gervasi - la Bonanova,BARCELONA,08035,BARCELONA,ESPANYA,41.41490626666666,2.1291973611111112,http://www.danzatoria-barcelona.com,mailto:danzatoria@group-azo.com
Restaurant La Farigola,-,-----,Les Corts,Pedralbes,BARCELONA,08034,BARCELONA,ESPANYA,41.38958693888889,2.12292425,-----,mailto:farigola@telefonica.net
Restaurant  Quilez,-,-----,Les Corts,les Corts,BARCELONA,08029,BARCELONA,ESPANYA,41.3900993,2.141940722222222,-----,-----
Ristorante Le Quattro Stagione,-,-----,Sarrià-Sant Gervasi,les Tres Torres,BARCELONA,08017,BARCELONA,ESPANYA,41.39576818333333,2.1319648333333334,-----,mailto:restaurante@4stagione.com
Restaurant El Taco,-,-----,Eixample,la Sagrada Família,BARCELONA,08013,BARCELONA,ESPANYA,41.40576585555556,2.1835519166666666,-----,-----
Bar Queimada,-,-----,Sant Martí,el Camp de l'Arpa del Clot,BARCELONA,08025,BARCELONA,ESPANYA,41.40917703611111,2.1794192777777774,-----,-----
Restaurant Celeste,-,-----,Eixample,la Sagrada Família,BARCELONA,08025,BARCELONA,ESPANYA,41.41141619722222,2.1760916666666663,-----,-----
Restaurant Els Hostalets,-,-----,Eixample,la Sagrada Família,BARCELONA,08013,BARCELONA,ESPANYA,41.4024062,2.1798896666666665,-----,-----
Bar Restaurant Torrente,-,-----,Gràcia,la Vila de Gràcia,BARCELONA,08024,BARCELONA,ESPANYA,41.40647638055555,2.1600789166666665,-----,-----
Restaurant El Trinquet,-,-----,Sant Martí,el Poblenou,BARCELONA,08005,BARCELONA,ESPANYA,41.39791490555555,2.2005082222222225,-----,-----
Restaurant Ponsa,-,-----,Eixample,l'Antiga Esquerra de l'Eixample,BARCELONA,08008,BARCELONA,ESPANYA,41.392104922222224,2.1565028055555553,-----,-----
Bar Restaurant Casa Jaime,-,-----,Eixample,l'Antiga Esquerra de l'Eixample,BARCELONA,08008,BARCELONA,ESPANYA,41.39283784444444,2.15552425,-----,-----
Bar Restaurant Gallardo,-,-----,Eixample,Sant Antoni,BARCELONA,08015,BARCELONA,ESPANYA,41.377412855555555,2.153343638888889,-----,-----
Restaurant Cerveseria Saudade,-,-----,Eixample,la Nova Esquerra de l'Eixample,BARCELONA,08015,BARCELONA,ESPANYA,41.378648669444445,2.1520813055555554,-----,-----
Restaurant Xinès Peonia,-,-----,Eixample,la Nova Esquerra de l'Eixample,BARCELONA,08029,BARCELONA,ESPANYA,41.382554077777776,2.1469109166666667,-----,-----
Restaurant La Torreta,-,-----,Gràcia,el Camp d'en Grassot i Gràcia Nova,BARCELONA,08024,BARCELONA,ESPANYA,41.410069299999996,2.1588680555555553,-----,-----
Restaurant Los Caracoles,-,-----,Ciutat Vella,el Barri Gòtic,BARCELONA,08002,BARCELONA,ESPANYA,41.37968023055556,2.1764640277777776,http://www.versin.com/caracoles,mailto:caracoles@versin.com
Restaurant El Trapio,-,-----,Sarrià-Sant Gervasi,Sant Gervasi - la Bonanova,BARCELONA,08017,BARCELONA,ESPANYA,41.40463860833333,2.1277275,http://www.restauranteltrapio.com,-----
Restaurant El Central,-,-----,Ciutat Vella,el Barri Gòtic,BARCELONA,08002,BARCELONA,ESPANYA,41.38702558611111,2.172547861111111,-----,mailto:antonioelcentral@hotmail.com
Café-Bar,-,-----,Sants-Montjuïc,el Poble Sec,BARCELONA,08004,BARCELONA,ESPANYA,41.371398822222226,2.160736083333333,-----,-----
Bar Restaurant Rodri,-,-----,Nou Barris,Vilapicina i la Torre Llobeta,BARCELONA,08031,BARCELONA,ESPANYA,41.43025254166666,2.1705353888888888,-----,-----
Restaurant El Patio Andaluz *Fastenrath,-,-----,Horta-Guinardó,la Teixonera,BARCELONA,08035,BARCELONA,ESPANYA,41.421444816666664,2.143295361111111,-----,-----
Bar Restaurant Kentucky Fried Chicken *Ferran,-,-----,Ciutat Vella,el Barri Gòtic,BARCELONA,08002,BARCELONA,ESPANYA,41.380355530555555,2.174304611111111,-----,-----
Restaurant Don Fernando,-,-----,Ciutat Vella,el Barri Gòtic,BARCELONA,08002,BARCELONA,ESPANYA,41.380969275,2.1750774166666664,-----,-----
Bar Restaurant Compostela,-,-----,Ciutat Vella,el Barri Gòtic,BARCELONA,08002,BARCELONA,ESPANYA,41.381445577777775,2.1756730555555555,http://www.compostelarestaurant.com,-----
Bar Restaurant Canari,-,-----,Sarrià-Sant Gervasi,el Putxet i el Farró,BARCELONA,08023,BARCELONA,ESPANYA,41.40603320555555,2.149700361111111,-----,-----
Restaurant Ca l'Isidre,-,-----,Ciutat Vella,el Raval,BARCELONA,08001,BARCELONA,ESPANYA,41.37593976944444,2.167964861111111,http://www.cal'isidre.com,mailto:info@cal'isidre.com
Restaurant Cruixent,-,-----,Eixample,Sant Antoni,BARCELONA,08015,BARCELONA,ESPANYA,41.37568536388889,2.1544875833333332,http://www.cruixent.net,-----
Bar Restaurant Cafeteria Caféparís,-,-----,Eixample,Sant Antoni,BARCELONA,08015,BARCELONA,ESPANYA,41.379583325,2.1601420555555553,http://www.cafeparis.org,mailto:delfinvela@hotmail.com
Restaurant Maur Pasta,-,-----,Eixample,Sant Antoni,BARCELONA,08011,BARCELONA,ESPANYA,41.38082206944444,2.161416722222222,-----,-----
Restaurant Telirium,-,-----,Les Corts,les Corts,BARCELONA,08034,BARCELONA,ESPANYA,41.39023415,2.1315376666666666,http://www.grupcacheiro.com,-----
Bar Restaurant Kentucky Fried Chicken *Fontanella,-,-----,Ciutat Vella,el Barri Gòtic,BARCELONA,08010,BARCELONA,ESPANYA,41.38798374444444,2.1725038333333333,http://www.kenchic.net,-----
Restaurant Estel de Gràcia,-,-----,Gràcia,la Vila de Gràcia,BARCELONA,08012,BARCELONA,ESPANYA,41.398994125,2.1592275,http://www.esteldegracia.com,mailto:esteldegracia@hotmail.com
Bar Restaurant Esdiba,-,-----,Sant Andreu,el Bon Pastor,BARCELONA,08030,BARCELONA,ESPANYA,41.433707255555554,2.2021266944444444,-----,-----
Restaurant Piolindo,-,-----,Ciutat Vella,"Sant Pere, Santa Caterina i la Ribera",BARCELONA,08003,BARCELONA,ESPANYA,41.386431269444444,2.177472583333333,-----,-----
Restaurant El Mirador de la Venta,-,-----,Sarrià-Sant Gervasi,Sant Gervasi - la Bonanova,BARCELONA,08035,BARCELONA,ESPANYA,41.41627376111111,2.131398527777778,http://www.restaurantlaventa.com,mailto:laventa@restaurantlaventa.com
Pizzeria Restaurant Ciutat Comtal,-,-----,Sants-Montjuïc,Sants,BARCELONA,08028,BARCELONA,ESPANYA,41.376188166666665,2.1358080833333335,http://www.pizzeriaciudadcondal.com,-----
Restaurant El Mesonet,-,-----,Sants-Montjuïc,Sants,BARCELONA,08028,BARCELONA,ESPANYA,41.376188166666665,2.1358080833333335,-----,-----
Restaurant Can Manel,-,-----,Sants-Montjuïc,Sants,BARCELONA,08028,BARCELONA,ESPANYA,41.378056352777776,2.134946222222222,-----,-----
Bar Restaurant Jesús,-,-----,Les Corts,les Corts,BARCELONA,08028,BARCELONA,ESPANYA,41.38288159444444,2.1327884166666666,-----,-----
El Reco de les Corts,-,-----,Les Corts,les Corts,BARCELONA,08028,BARCELONA,ESPANYA,41.38554740833333,2.131535361111111,-----,-----
Restaurant Via Veneto,-,-----,Sarrià-Sant Gervasi,Sant Gervasi - Galvany,BARCELONA,08021,BARCELONA,ESPANYA,41.392457280555554,2.1390499722222223,http://www.viavenetorestaurant.com,-----
Restaurant Indret de Semon,-,-----,Sarrià-Sant Gervasi,Sant Gervasi - Galvany,BARCELONA,08021,BARCELONA,ESPANYA,41.39481105833333,2.13753075,-----,-----
Bar Laie,-,-----,Ciutat Vella,el Raval,BARCELONA,08001,BARCELONA,ESPANYA,41.37653685,2.172103083333333,-----,-----
Bar Restaurant Kentucky Fried Chicken *Av Gaudí,-,-----,Eixample,la Sagrada Família,BARCELONA,08025,BARCELONA,ESPANYA,41.404908675,2.174584,-----,-----
Restaurant Pizzeria La Piazzenza,-,-----,Eixample,la Sagrada Família,BARCELONA,08025,BARCELONA,ESPANYA,41.40546130833333,2.1745770555555555,-----,-----
Restaurant Cafeteria Bon Punt,-,-----,Eixample,la Sagrada Família,BARCELONA,08025,BARCELONA,ESPANYA,41.4074263,2.1742288888888885,-----,-----
Restaurant Braseria Cal Ramon,-,-----,Eixample,la Sagrada Família,BARCELONA,08025,BARCELONA,ESPANYA,41.41063665833333,2.174505083333333,-----,-----
Restaurant Vanessa,-,-----,Eixample,la Sagrada Família,BARCELONA,08025,BARCELONA,ESPANYA,41.410678363888884,2.174182222222222,-----,-----
Restaurant Can Jaume,-,-----,Sarrià-Sant Gervasi,Sant Gervasi - Galvany,BARCELONA,08021,BARCELONA,ESPANYA,41.39354742222222,2.1434789166666666,-----,-----
Bar Restaurant Boga-Boga,-,-----,Ciutat Vella,el Barri Gòtic,BARCELONA,08002,BARCELONA,ESPANYA,41.38008125,2.179753583333333,-----,-----
Bar Restaurant Mesón a Roda,-,-----,Ciutat Vella,el Barri Gòtic,BARCELONA,08002,BARCELONA,ESPANYA,41.38070764444444,2.1802373333333334,http://www.pulperiaroda.com,-----
Restaurant Chardonnay,-,-----,Ciutat Vella,el Barri Gòtic,BARCELONA,08002,BARCELONA,ESPANYA,41.38103079722222,2.1804609999999998,-----,-----
Bar La Repanocha,-,-----,Eixample,la Dreta de l'Eixample,BARCELONA,08037,BARCELONA,ESPANYA,41.397598825,2.164999583333333,-----,-----
Restaurant La Dama,-,-----,Eixample,l'Antiga Esquerra de l'Eixample,BARCELONA,08036,BARCELONA,ESPANYA,41.39462816388889,2.152965694444444,http://www.ladama.restaurant.com,-----
Bar Diagonal 460,-,-----,Gràcia,la Vila de Gràcia,BARCELONA,08006,BARCELONA,ESPANYA,41.39620365277778,2.157228472222222,-----,-----
Càtering - Restaurant Mercès,-,-----,Les Corts,les Corts,BARCELONA,08029,BARCELONA,ESPANYA,41.39058221388889,2.1378856388888887,http://www.merces.es,mailto:info@merces.es
Restaurant Bugui,-,-----,Les Corts,la Maternitat i Sant Ramon,BARCELONA,08028,BARCELONA,ESPANYA,41.386078294444445,2.1256705,-----,-----
Cervecería Berlín,-,-----,Les Corts,la Maternitat i Sant Ramon,BARCELONA,08028,BARCELONA,ESPANYA,41.386078294444445,2.1256705,-----,-----
Café del Centre,-,-----,Eixample,la Dreta de l'Eixample,BARCELONA,08009,BARCELONA,ESPANYA,41.39463770277778,2.171179861111111,-----,mailto:altantu@yahoo.es
Restaurant Agut,-,-----,Ciutat Vella,el Barri Gòtic,BARCELONA,08002,BARCELONA,ESPANYA,41.380934205555555,2.1799163611111108,-----,-----
Restaurant Cheriff,-,-----,Ciutat Vella,la Barceloneta,BARCELONA,08003,BARCELONA,ESPANYA,41.381696825,2.188531,-----,-----
Restaurant La Vaca Paca,-,-----,Eixample,la Dreta de l'Eixample,BARCELONA,08007,BARCELONA,ESPANYA,41.390381894444445,2.1665831944444442,http://www.lavacapaca.com,-----
Restaurant Cafè del Bulevard,-,-----,Eixample,la Dreta de l'Eixample,BARCELONA,08007,BARCELONA,ESPANYA,41.39255950277778,2.1638897777777775,http://www.bulevardrosa.com,-----
Restaurant Racó de la Vila,-,-----,Sant Martí,el Poblenou,BARCELONA,08005,BARCELONA,ESPANYA,41.39745671666667,2.1990469999999998,http://www.racodelavila.com,mailto:info@racodelavila.com
Restaurant Il Giardinetto *Granada Penedès,-,-----,Sarrià-Sant Gervasi,Sant Gervasi - Galvany,BARCELONA,08006,BARCELONA,ESPANYA,41.39704483333333,2.1528239166666667,http://www.ilgiardinetto.es,mailto:giardinetto@ilgiardinetto.es
Bar Restaurant Chezguy,-,-----,Sarrià-Sant Gervasi,Sant Gervasi - Galvany,BARCELONA,08006,BARCELONA,ESPANYA,41.39645171666667,2.151977027777778,-----,-----
Restaurant Els Peps,-,-----,Ciutat Vella,"Sant Pere, Santa Caterina i la Ribera",BARCELONA,08003,BARCELONA,ESPANYA,41.38402289444444,2.1802386944444443,-----,-----
Restaurant Taverna el Racó de Sants,-,-----,Sants-Montjuïc,Sants,BARCELONA,08014,BARCELONA,ESPANYA,41.375038897222225,2.1390154444444445,-----,-----
Restaurant Telepizza *Rbla Guipuscoa,-,-----,Sant Martí,Sant Martí de Provençals,BARCELONA,08020,BARCELONA,ESPANYA,41.41652918611111,2.196973555555555,http://www.telepizza.es,-----
Bar Quimet,-,-----,Horta-Guinardó,Horta,BARCELONA,08032,BARCELONA,ESPANYA,41.43072114444444,2.1607156388888886,-----,-----
Restaurant El Cocinero,-,-----,Sant Martí,el Camp de l'Arpa del Clot,BARCELONA,08026,BARCELONA,ESPANYA,41.41087545833333,2.179508861111111,-----,-----
Bar Restaurant 202,-,-----,Sant Martí,el Camp de l'Arpa del Clot,BARCELONA,08026,BARCELONA,ESPANYA,41.411364325,2.1769974444444444,-----,-----
Restaurant Infanta Carlota,-,-----,Sants-Montjuïc,Sants,BARCELONA,08029,BARCELONA,ESPANYA,41.38157009722222,2.1416644444444444,-----,-----
Bar Joan,-,-----,Eixample,la Nova Esquerra de l'Eixample,BARCELONA,08029,BARCELONA,ESPANYA,41.38756628888889,2.1432449444444446,-----,-----
Restaurant Yashima,-,-----,Les Corts,les Corts,BARCELONA,08029,BARCELONA,ESPANYA,41.391003052777776,2.143460777777778,-----,-----
Restaurant La Botiga *Av. Josep Tarradellas,-,-----,Les Corts,les Corts,BARCELONA,08029,BARCELONA,ESPANYA,41.39170445833333,2.143728277777778,http://www.angrup.com,-----
Restaurant La Balsa,-,-----,Sarrià-Sant Gervasi,Sant Gervasi - la Bonanova,BARCELONA,08022,BARCELONA,ESPANYA,41.410843794444446,2.130347111111111,-----,-----
Restaurant St. Rémy,-,-----,Sarrià-Sant Gervasi,Sant Gervasi - la Bonanova,BARCELONA,08017,BARCELONA,ESPANYA,41.40391263611111,2.1260375833333334,http://www.stremyrestaurant.com,-----
Restaurant Pescadito Alegre,-,-----,Sants-Montjuïc,Sants - Badal,BARCELONA,08028,BARCELONA,ESPANYA,41.37701617222222,2.1253729166666666,-----,-----
Restaurant Rovell d'Ou,-,-----,Les Corts,Pedralbes,BARCELONA,08034,BARCELONA,ESPANYA,41.387175891666665,2.1129562222222225,-----,-----
Restaurant Zure Etxea,-,-----,Les Corts,Pedralbes,BARCELONA,08034,BARCELONA,ESPANYA,41.38725212222222,2.1132662222222223,-----,mailto:zureetxea@telefonica.net
Bar Restaurant La Fuente,-,-----,Sants-Montjuïc,la Font de la Guatlla,BARCELONA,08004,BARCELONA,ESPANYA,41.37117877777778,2.144448833333333,-----,-----
Restaurant Braseria Myaro,-,-----,Sants-Montjuïc,Hostafrancs,BARCELONA,08014,BARCELONA,ESPANYA,41.37223901388889,2.1449783333333334,-----,-----
Restaurant Pizzeria Candela,-,-----,Sants-Montjuïc,Hostafrancs,BARCELONA,08014,BARCELONA,ESPANYA,41.37293736666667,2.1459053333333333,-----,-----
Restaurant Plató,-,-----,Eixample,Sant Antoni,BARCELONA,08015,BARCELONA,ESPANYA,41.37671277222222,2.151847861111111,-----,-----
Restaurant Pizzeria Piccata,-,-----,Eixample,la Nova Esquerra de l'Eixample,BARCELONA,08015,BARCELONA,ESPANYA,41.38040116944445,2.155832222222222,-----,-----
Restaurant Ordesa,-,-----,Eixample,Sant Antoni,BARCELONA,08011,BARCELONA,ESPANYA,41.381769025,2.1585288055555556,-----,-----
Bar Solo Marienbad,-,-----,Eixample,l'Antiga Esquerra de l'Eixample,BARCELONA,08011,BARCELONA,ESPANYA,41.38550320277778,2.1626266666666667,-----,-----
Berriketa Euskal Taberna,-,-----,Eixample,la Dreta de l'Eixample,BARCELONA,08007,BARCELONA,ESPANYA,41.38657339444445,2.16492,-----,-----
Restaurant Cerveseria Salsitxeria Otto Sylt *Gran Via,-,-----,Eixample,la Dreta de l'Eixample,BARCELONA,08007,BARCELONA,ESPANYA,41.38800978888889,2.1668339444444444,http://www.angrup.com,mailto:ang@angrup.com
Restaurant El Chato,-,-----,Eixample,el Fort Pienc,BARCELONA,08013,BARCELONA,ESPANYA,41.39717263611111,2.178151722222222,http://www.bcnrestaurantes.com/barcelona.asp?restaurante=el-chato,mailto:eva@restaurantwindsor.com
Bar Restaurant La Sirena,-,-----,Eixample,el Fort Pienc,BARCELONA,08013,BARCELONA,ESPANYA,41.39695744722222,2.178744111111111,-----,-----
Restaurant Pizza Bull,-,-----,Sant Martí,Provençals del Poblenou,BARCELONA,08018,BARCELONA,ESPANYA,41.41008779444444,2.196666111111111,-----,-----
Bar Restaurant Xaica-1,-,-----,Ciutat Vella,el Raval,BARCELONA,08001,BARCELONA,ESPANYA,41.38536387222222,2.167762944444444,-----,-----
Restaurant Can Barça,-,-----,Les Corts,les Corts,BARCELONA,08028,BARCELONA,ESPANYA,41.38661755277778,2.129515388888889,-----,-----
Restaurant Mistos,-,-----,Horta-Guinardó,la Vall d'Hebron,BARCELONA,08035,BARCELONA,ESPANYA,41.43062451388889,2.147663722222222,-----,-----
Rapsodia Club,-,-----,Sarrià-Sant Gervasi,Sant Gervasi - Galvany,BARCELONA,08021,BARCELONA,ESPANYA,41.39597996388889,2.13959,-----,-----
Bar Restaurant Braseria Sibelius,-,-----,Sant Martí,el Camp de l'Arpa del Clot,BARCELONA,08026,BARCELONA,ESPANYA,41.41037113611111,2.1858063611111107,-----,-----
Bar. restaurant Conde Drácula,-,-----,Nou Barris,la Prosperitat,BARCELONA,08016,BARCELONA,ESPANYA,41.44097347222222,2.1771980555555555,-----,-----
Restaurant La Rosca,-,-----,Ciutat Vella,el Barri Gòtic,BARCELONA,08002,BARCELONA,ESPANYA,41.386168805555556,2.174843222222222,-----,-----
Restaurant Octubre,-,-----,Sarrià-Sant Gervasi,Sant Gervasi - Galvany,BARCELONA,08006,BARCELONA,ESPANYA,41.3975612,2.153474638888889,-----,-----
Restaurant Brasserie Flo,-,-----,Ciutat Vella,"Sant Pere, Santa Caterina i la Ribera",BARCELONA,08003,BARCELONA,ESPANYA,41.38822961111111,2.17416125,-----,mailto:reservas-flo@grupglo.es
Restaurant Xinès Cantón,-,-----,Sarrià-Sant Gervasi,Sant Gervasi - Galvany,BARCELONA,08006,BARCELONA,ESPANYA,41.39886051111111,2.1494708888888887,-----,-----
Bar Restaurant Lauria II,-,-----,Eixample,la Dreta de l'Eixample,BARCELONA,08010,BARCELONA,ESPANYA,41.38994416944444,2.17324775,-----,-----
Restaurant Xarcuteria Casa Alfonso,-,-----,Eixample,la Dreta de l'Eixample,BARCELONA,08010,BARCELONA,ESPANYA,41.39006253611111,2.1730894722222223,http://www.casaalfonso.com,mailto:info@casaalfonso.com
Restaurant Platero,-,-----,Ciutat Vella,"Sant Pere, Santa Caterina i la Ribera",BARCELONA,08003,BARCELONA,ESPANYA,41.38221318611111,2.181230444444444,-----,-----
Restaurant Camí de la Fusta,-,-----,Ciutat Vella,"Sant Pere, Santa Caterina i la Ribera",BARCELONA,08003,BARCELONA,ESPANYA,41.38299346944444,2.180196972222222,-----,-----
Restaurant Pizzeria La Perla Nera,-,-----,Ciutat Vella,"Sant Pere, Santa Caterina i la Ribera",BARCELONA,08003,BARCELONA,ESPANYA,41.38516964722222,2.177318861111111,-----,-----
Restaurant La Habana,-,-----,Ciutat Vella,Pedralbes,BARCELONA,08001,BARCELONA,ESPANYA,41.381965775,2.1650218888888886,-----,-----
Restaurant Sol i Lluna,-,-----,Sarrià-Sant Gervasi,Sant Gervasi - la Bonanova,BARCELONA,08022,BARCELONA,ESPANYA,41.41137697222222,2.1373914166666665,-----,-----
Restaurant La Barbacoa de l'Eixample,-,-----,Eixample,la Sagrada Família,BARCELONA,08025,BARCELONA,ESPANYA,41.407201091666664,2.1728265277777776,-----,-----
Restaurant Rias de Galicia,-,-----,Sants-Montjuïc,el Poble Sec,BARCELONA,08004,BARCELONA,ESPANYA,41.37424314166667,2.1545760555555553,http://www.riasdegalicia.com,mailto:info@riasdegalicia.com
Restaurant La Parra,-,-----,Sants-Montjuïc,Hostafrancs,BARCELONA,08014,BARCELONA,ESPANYA,41.37509928611111,2.1409046944444445,-----,-----
Bar Conesa *Creu Coberta,-,-----,Sants-Montjuïc,Hostafrancs,BARCELONA,08014,BARCELONA,ESPANYA,41.37533824444444,2.1441185,http://www.conesaentrepans.com,mailto:clients@conesaentrepans.com
Bar Cafeteria Mesón del Café,-,-----,Ciutat Vella,el Barri Gòtic,BARCELONA,08002,BARCELONA,ESPANYA,41.383257075,2.177507583333333,-----,-----
Restaurant La Nao,-,-----,Eixample,la Nova Esquerra de l'Eixample,BARCELONA,08029,BARCELONA,ESPANYA,41.38967724166667,2.145546527777778,-----,-----
Restaurant Il Comodoro,-,-----,Eixample,l'Antiga Esquerra de l'Eixample,BARCELONA,08036,BARCELONA,ESPANYA,41.390932630555554,2.1475731666666666,-----,mailto:commox@yahoo.es
Restaurant Londres,-,-----,Eixample,l'Antiga Esquerra de l'Eixample,BARCELONA,08036,BARCELONA,ESPANYA,41.39273011666667,2.149592222222222,-----,-----
Bar Restaurant Dialo,-,-----,Les Corts,les Corts,BARCELONA,08029,BARCELONA,ESPANYA,41.39174865555555,2.142772861111111,-----,-----
Restaurant Ca La Teresa,-,-----,Sant Martí,el Poblenou,BARCELONA,08005,BARCELONA,ESPANYA,41.400337844444444,2.197898083333333,-----,-----
Restaurant Japonès Bun Sishi,-,-----,Eixample,l'Antiga Esquerra de l'Eixample,BARCELONA,08036,BARCELONA,ESPANYA,41.393258116666665,2.149771,http://www.bunsichi.com,-----
Restaurant Cafè de l'Acadèmia,-,-----,Ciutat Vella,el Barri Gòtic,BARCELONA,08002,BARCELONA,ESPANYA,41.382908191666665,2.1785656388888888,-----,-----
Restaurant Ariadna,-,-----,Sarrià-Sant Gervasi,Sant Gervasi - Galvany,BARCELONA,08021,BARCELONA,ESPANYA,41.396056180555554,2.144791027777778,-----,-----
Restaurant Da Paolo,-,-----,Les Corts,la Maternitat i Sant Ramon,BARCELONA,08028,BARCELONA,ESPANYA,41.37809453333333,2.12645825,http://www.dapaolo.es,mailto:dapaolo@dapaolo.es
Restaurant Juan,-,-----,Sant Andreu,la Trinitat Vella,BARCELONA,08033,BARCELONA,ESPANYA,41.44962256944444,2.191024944444444,-----,-----
Dole Café,-,-----,Sarrià-Sant Gervasi,Sarrià,BARCELONA,08034,BARCELONA,ESPANYA,41.393468383333335,2.1254036666666667,-----,-----
Restaurant Gota d'Or,-,-----,Sarrià-Sant Gervasi,Sarrià,BARCELONA,08034,BARCELONA,ESPANYA,41.39391675,2.125527027777778,-----,-----
Restaurant El Loro Blanco,-,-----,Sarrià-Sant Gervasi,Sarrià,BARCELONA,08034,BARCELONA,ESPANYA,41.393468383333335,2.1254036666666667,-----,-----
Restaurant Taita,-,-----,Sarrià-Sant Gervasi,Sant Gervasi - Galvany,BARCELONA,08021,BARCELONA,ESPANYA,41.393092841666665,2.1419751944444445,-----,-----
Restaurant Cafè de Paris,-,-----,Sarrià-Sant Gervasi,Sant Gervasi - Galvany,BARCELONA,08021,BARCELONA,ESPANYA,41.39426517222222,2.143331972222222,-----,-----
Restaurant La Tomaquera,-,-----,Sants-Montjuïc,el Poble Sec,BARCELONA,08004,BARCELONA,ESPANYA,41.37231015555555,2.1630167777777776,-----,-----
Restaurant Can Pescallunes,-,-----,Ciutat Vella,el Barri Gòtic,BARCELONA,08002,BARCELONA,ESPANYA,41.386443030555554,2.1745028888888887,-----,-----
Restaurant JJ,-,-----,Sants-Montjuïc,Hostafrancs,BARCELONA,08014,BARCELONA,ESPANYA,41.37895758611111,2.14309225,-----,-----
Restaurant El Caballito Blanco,-,-----,Eixample,l'Antiga Esquerra de l'Eixample,BARCELONA,08036,BARCELONA,ESPANYA,41.39009182777778,2.1577771666666665,-----,-----
Restaurant Lizarrán *Mallorca,-,-----,Eixample,la Dreta de l'Eixample,BARCELONA,08008,BARCELONA,ESPANYA,41.393437041666665,2.16184675,http://www.lizarran.com,-----
Cerveseria Restaurant Nuremberg,-,-----,Sant Andreu,Navas,BARCELONA,08027,BARCELONA,ESPANYA,41.414036369444446,2.1890890555555553,-----,-----
Bar Restaurant Montesquiu,-,-----,Sarrià-Sant Gervasi,Sant Gervasi - la Bonanova,BARCELONA,08022,BARCELONA,ESPANYA,41.40461825277777,2.1325325833333335,-----,-----
Restaurant Can Ventura,-,-----,Sarrià-Sant Gervasi,el Putxet i el Farró,BARCELONA,08006,BARCELONA,ESPANYA,41.40359345277778,2.1437256666666666,-----,-----
Restaurant Can Ramonet,-,-----,Ciutat Vella,la Barceloneta,BARCELONA,08003,BARCELONA,ESPANYA,41.38083230555556,2.188923055555555,http://www.canramonetrestaurant.com,-----
Restaurant Cantina Mexicana Chihuahua,-,-----,Horta-Guinardó,el Guinardó,BARCELONA,08041,BARCELONA,ESPANYA,41.418847138888886,2.1803885555555556,-----,-----
Bar Restaurant Sidney,-,-----,Sant Andreu,el Congrés i els Indians,BARCELONA,08027,BARCELONA,ESPANYA,41.42515431111111,2.1765916111111108,-----,-----
Restaurant Celpe,-,-----,Horta-Guinardó,el Guinardó,BARCELONA,08041,BARCELONA,ESPANYA,41.424180255555555,2.1770771666666664,-----,-----
Restaurant Maruzella,-,-----,Nou Barris,Vilapicina i la Torre Llobeta,BARCELONA,08031,BARCELONA,ESPANYA,41.42738096944444,2.169480138888889,-----,-----
Restaurant Telepizza *Pg Maragall,-,-----,Nou Barris,Vilapicina i la Torre Llobeta,BARCELONA,08031,BARCELONA,ESPANYA,41.42800259722222,2.1643519444444443,http://www.telepizza.es,-----
Restaurant Ongui Etorri,-,-----,Sant Martí,el Besòs i el Maresme,BARCELONA,08019,BARCELONA,ESPANYA,41.415029624999995,2.2124656666666667,-----,-----
Restaurant Xinès La Gran Muralla 3,-,-----,Sarrià-Sant Gervasi,Sant Gervasi - Galvany,BARCELONA,08021,BARCELONA,ESPANYA,41.39697828333333,2.1473756388888887,-----,-----
Bar Restaurant La Teya,-,-----,Sarrià-Sant Gervasi,Sant Gervasi - Galvany,BARCELONA,08021,BARCELONA,ESPANYA,41.39481238055556,2.14394275,-----,-----
Restaurant Casa Jordi,-,-----,Sarrià-Sant Gervasi,Sant Gervasi - Galvany,BARCELONA,08021,BARCELONA,ESPANYA,41.39451113055556,2.1477334722222223,-----,mailto:casajordi@casajordi.es
Bar Restaurant Baviera,-,-----,Eixample,la Sagrada Família,BARCELONA,08013,BARCELONA,ESPANYA,41.40303226388889,2.176163,-----,-----
Restaurant El Felino,-,-----,Eixample,la Sagrada Família,BARCELONA,08025,BARCELONA,ESPANYA,41.40500064166667,2.1735880555555553,-----,-----
Bar Argentina,-,-----,Eixample,la Sagrada Família,BARCELONA,08025,BARCELONA,ESPANYA,41.407686041666665,2.1700392777777777,-----,-----
Bar Restaurant Pizzeria El Paralelo,-,-----,Sants-Montjuïc,el Poble Sec,BARCELONA,08004,BARCELONA,ESPANYA,41.37481429166667,2.156354583333333,-----,-----
Bar Montseny,-,-----,Eixample,Sant Antoni,BARCELONA,08015,BARCELONA,ESPANYA,41.37524922222222,2.150613722222222,-----,-----
Restaurant Con Gracia,-,-----,Gràcia,la Vila de Gràcia,BARCELONA,08012,BARCELONA,ESPANYA,41.39902903055555,2.160035972222222,-----,-----
Pizzeria Cuatro,-,-----,Les Corts,les Corts,BARCELONA,08028,BARCELONA,ESPANYA,41.38555936666667,2.1295700277777776,-----,-----
Restaurant La Maduixa,-,-----,Les Corts,les Corts,BARCELONA,08028,BARCELONA,ESPANYA,41.38534961388889,2.1288977222222223,-----,-----
Bar Teteria Jazmín,-,-----,Gràcia,la Vila de Gràcia,BARCELONA,08012,BARCELONA,ESPANYA,41.401210263888885,2.156374861111111,-----,-----
Restaurant Sporting,-,-----,Gràcia,la Vila de Gràcia,BARCELONA,08012,BARCELONA,ESPANYA,41.40120241666666,2.1565035277777778,-----,-----
Restaurant Can Xurrades,-,-----,Gràcia,la Vila de Gràcia,BARCELONA,08012,BARCELONA,ESPANYA,41.399495538888885,2.155728972222222,http://www.canxurrades.com,mailto:rafa@canxurrades.com
Restaurant Botafumeiro,-,-----,Gràcia,la Vila de Gràcia,BARCELONA,08012,BARCELONA,ESPANYA,41.400430944444444,2.1546171944444446,http://www.botafumeiro.com,mailto:info@botafumeiro.es
Bar Restaurant La Victoria,-,-----,Gràcia,la Vila de Gràcia,BARCELONA,08012,BARCELONA,ESPANYA,41.402223355555556,2.1529711666666667,-----,-----
Restaurant Sant Yago,-,-----,Gràcia,la Vila de Gràcia,BARCELONA,08012,BARCELONA,ESPANYA,41.40539896666667,2.1508250277777776,-----,-----
Bar Can Tomás,-,-----,Sarrià-Sant Gervasi,Sarrià,BARCELONA,08017,BARCELONA,ESPANYA,41.39757398611111,2.1230531944444446,-----,-----
Restaurant Casa Joana,-,-----,Sarrià-Sant Gervasi,Sarrià,BARCELONA,08017,BARCELONA,ESPANYA,41.398053491666666,2.1224883055555557,-----,-----
Restaurant Tram Tram,-,-----,Sarrià-Sant Gervasi,Sarrià,BARCELONA,08017,BARCELONA,ESPANYA,41.40074349722222,2.1205225,http://www.reisole.es,-----
Restaurant Ca La Tresa,-,-----,Sarrià-Sant Gervasi,Sarrià,BARCELONA,08017,BARCELONA,ESPANYA,41.40033591388889,2.121157833333333,-----,mailto:calatresa@mailpersonal.com
Restaurant Mejico,-,-----,Sants-Montjuïc,la Font de la Guatlla,BARCELONA,08004,BARCELONA,ESPANYA,41.37241568611111,2.148787583333333,-----,-----
Restaurant Pizza Ràpid *Torrent de l'Olla,-,-----,Gràcia,la Vila de Gràcia,BARCELONA,08012,BARCELONA,ESPANYA,41.40436613888889,2.15462725,-----,-----
Bar Restaurant L'Olla,-,-----,Gràcia,la Vila de Gràcia,BARCELONA,08012,BARCELONA,ESPANYA,41.406693675,2.151752777777778,-----,-----
Bar Restaurant Rabasseda,-,-----,Sant Andreu,Sant Andreu,BARCELONA,08030,BARCELONA,ESPANYA,41.434666674999995,2.1887514444444442,-----,-----
Bar Restaurant Alastruey,-,-----,Ciutat Vella,"Sant Pere, Santa Caterina i la Ribera",BARCELONA,08003,BARCELONA,ESPANYA,41.38531476944444,2.1779345833333332,-----,-----
Bar Celta,-,-----,Ciutat Vella,el Barri Gòtic,BARCELONA,08002,BARCELONA,ESPANYA,41.379907875,2.18018775,http://www.barceltapulperia.com,-----
Restaurant Cantonata *Av Meridiana,-,-----,Sant Martí,el Parc i la Llacuna del Poblenou,BARCELONA,08018,BARCELONA,ESPANYA,41.39255196111111,2.1865499444444443,-----,-----
Restaurant Gamo,-,-----,Sant Martí,el Clot,BARCELONA,08026,BARCELONA,ESPANYA,41.40790422222222,2.1865641111111107,-----,-----
Restaurant Xarcuteria Pizza Ràpid *Av Mistral,-,-----,Eixample,Sant Antoni,BARCELONA,08015,BARCELONA,ESPANYA,41.37749871111111,2.158763638888889,-----,-----
Restaurant Pizzeria El Atico,-,-----,Eixample,Sant Antoni,BARCELONA,08015,BARCELONA,ESPANYA,41.376561063888886,2.1553179166666667,-----,-----
Ristorante Roberta,-,-----,Sarrià-Sant Gervasi,Sant Gervasi - Galvany,BARCELONA,08006,BARCELONA,ESPANYA,41.39819939722222,2.148025722222222,-----,-----
Bar Restaurant Els Quatre Gats,-,-----,Ciutat Vella,el Barri Gòtic,BARCELONA,08002,BARCELONA,ESPANYA,41.38600915833333,2.173499777777778,http://www.4gats.com,mailto:4gats@4gats.es
Restaurant Els Actuals,-,-----,Ciutat Vella,el Barri Gòtic,BARCELONA,08002,BARCELONA,ESPANYA,41.385790505555555,2.173837888888889,-----,-----
Bar Cherpi,-,-----,Sarrià-Sant Gervasi,Sant Gervasi - la Bonanova,BARCELONA,08022,BARCELONA,ESPANYA,41.408432258333335,2.1374589444444445,-----,-----
Bar Restaurant La Fuente,-,-----,Sant Andreu,Sant Andreu,BARCELONA,08030,BARCELONA,ESPANYA,41.44221684722222,2.1871709999999998,-----,-----
Bar L'Anxoveta,-,-----,Gràcia,la Vila de Gràcia,BARCELONA,08012,BARCELONA,ESPANYA,41.39984006388889,2.156595388888889,-----,-----
Bar Restaurant Cosmopolita,-,-----,Eixample,Sant Antoni,BARCELONA,08011,BARCELONA,ESPANYA,41.38418958611111,2.1628081666666668,http://www.cosmopolitaclub.com,mailto:info@cosmopolitaclub.com
Bar Restaurant Can Pagès,-,-----,Eixample,l'Antiga Esquerra de l'Eixample,BARCELONA,08011,BARCELONA,ESPANYA,41.385409333333335,2.161196861111111,-----,-----
Bar Restaurant Río Grande,-,-----,Eixample,l'Antiga Esquerra de l'Eixample,BARCELONA,08036,BARCELONA,ESPANYA,41.38878565277778,2.1563624722222223,-----,-----
Restaurant L'Olivé,-,-----,Eixample,l'Antiga Esquerra de l'Eixample,BARCELONA,08007,BARCELONA,ESPANYA,41.38916575277778,2.1626395555555553,http://www.rte-olive.com,-----
Restaurant Casa Julio,-,-----,Sarrià-Sant Gervasi,Sant Gervasi - Galvany,BARCELONA,08021,BARCELONA,ESPANYA,41.40104975277777,2.1400979444444443,-----,-----
Restaurant Port Vell,-,-----,Ciutat Vella,la Barceloneta,BARCELONA,08003,BARCELONA,ESPANYA,41.37980243888889,2.187712722222222,-----,-----
Bar Meson Jesus,-,-----,Eixample,el Fort Pienc,BARCELONA,08013,BARCELONA,ESPANYA,41.398693147222225,2.175392138888889,-----,-----
Cafeteria Restaurant Tossa,-,-----,Gràcia,el Camp d'en Grassot i Gràcia Nova,BARCELONA,08025,BARCELONA,ESPANYA,41.40330325,2.1686674444444445,-----,-----
Bar Restaurant El racó d'en Shahban,-,-----,Gràcia,el Camp d'en Grassot i Gràcia Nova,BARCELONA,08025,BARCELONA,ESPANYA,41.404107325,2.1676916666666664,-----,-----
Restaurant La Ferreria,-,-----,Gràcia,la Vila de Gràcia,BARCELONA,08006,BARCELONA,ESPANYA,41.397272308333335,2.1551960277777775,-----,-----
Restaurant Xinès Primero,-,-----,Les Corts,les Corts,BARCELONA,08029,BARCELONA,ESPANYA,41.385170788888885,2.138762861111111,-----,-----
Bar Restaurant Rincón del Cazador,-,-----,Gràcia,el Coll,BARCELONA,08023,BARCELONA,ESPANYA,41.417191538888886,2.147493638888889,-----,-----
Restaurant La Rosa,-,-----,Sants-Montjuïc,la Marina de Port,BARCELONA,08038,BARCELONA,ESPANYA,41.36481233888889,2.139408138888889,-----,-----
Restaurant La Lloca,-,-----,Sants-Montjuïc,Sants,BARCELONA,08029,BARCELONA,ESPANYA,41.38280423333333,2.139743833333333,http://www.lalloca.com,mailto:info@lalloca.com
 Company *Pl Urquinaona,-,-----,Eixample,la Dreta de l'Eixample,BARCELONA,08010,BARCELONA,ESPANYA,41.38854242777778,2.1724777499999997,http://www.pansandcompany.com,-----
La Ruana,-,-----,Sants-Montjuïc,el Poble Sec,BARCELONA,08004,BARCELONA,ESPANYA,41.373963036111114,2.166217361111111,-----,-----
Restaurant El Pa Nostre,-,-----,Sants-Montjuïc,Sants,BARCELONA,08014,BARCELONA,ESPANYA,41.37394290833333,2.1362515277777776,-----,-----
Bar Restaurant El Gancho,-,-----,Sants-Montjuïc,la Bordeta,BARCELONA,08014,BARCELONA,ESPANYA,41.370402927777775,2.1375457222222223,-----,-----
Bar Restaurant Cafè Ribera,-,-----,Ciutat Vella,"Sant Pere, Santa Caterina i la Ribera",BARCELONA,08003,BARCELONA,ESPANYA,41.38383388888889,2.1831680833333333,-----,-----
Bar Restaurant Cal Pep,-,-----,Ciutat Vella,"Sant Pere, Santa Caterina i la Ribera",BARCELONA,08003,BARCELONA,ESPANYA,41.38394300277778,2.1833376388888888,http://www.calpep.com,mailto:calpep@calpep.com
Restaurant Xinès Dragon Oriente,-,-----,Horta-Guinardó,el Baix Guinardó,BARCELONA,08025,BARCELONA,ESPANYA,41.41245729166666,2.168697472222222,-----,-----
Bar Restaurant Hermanos Tomás,-,-----,Sant Andreu,la Trinitat Vella,BARCELONA,08033,BARCELONA,ESPANYA,41.45375731666667,2.1897895555555555,http://www.htomas.com,-----
Restaurant Pizzeria l'Espurna,-,-----,Sant Andreu,Sant Andreu,BARCELONA,08030,BARCELONA,ESPANYA,41.43327615,2.1865048333333332,http://www.sant-andreu.com/com.1/espurna/default.htm,-----
Restaurant Degustació Pàdua,-,-----,Sarrià-Sant Gervasi,el Putxet i el Farró,BARCELONA,08006,BARCELONA,ESPANYA,41.40455078888889,2.144445638888889,-----,-----
Bodega Pàdua,-,-----,Sarrià-Sant Gervasi,el Putxet i el Farró,BARCELONA,08006,BARCELONA,ESPANYA,41.40435896388889,2.1439910555555555,-----,-----
Restaurant Esthvan,-,-----,Sant Andreu,la Sagrera,BARCELONA,08027,BARCELONA,ESPANYA,41.418665688888886,2.1908617777777777,-----,-----
Bar Restaurant Fantotxe,-,-----,Eixample,la Nova Esquerra de l'Eixample,BARCELONA,08029,BARCELONA,ESPANYA,41.38784623888889,2.1453717777777777,-----,-----
Cafeteria Snack Bar Ya-Ya,-,-----,Eixample,l'Antiga Esquerra de l'Eixample,BARCELONA,08036,BARCELONA,ESPANYA,41.390852875,2.149732888888889,-----,-----
Restaurant Solera Gallega,-,-----,Eixample,l'Antiga Esquerra de l'Eixample,BARCELONA,08036,BARCELONA,ESPANYA,41.392968975,2.152546222222222,http://www.gulliver.es/solera.htm,-----
Restaurant El Yate,-,-----,Eixample,l'Antiga Esquerra de l'Eixample,BARCELONA,08036,BARCELONA,ESPANYA,41.393586191666664,2.1533635277777776,-----,-----
Bar París,-,-----,Eixample,l'Antiga Esquerra de l'Eixample,BARCELONA,08036,BARCELONA,ESPANYA,41.39353677222222,2.152797138888889,-----,-----
Restaurant O'Retiro do Marineiro,-,-----,Eixample,l'Antiga Esquerra de l'Eixample,BARCELONA,08008,BARCELONA,ESPANYA,41.39430766388889,2.154315638888889,-----,-----
Restaurant Pa i Trago,-,-----,Eixample,Sant Antoni,BARCELONA,08015,BARCELONA,ESPANYA,41.377199016666665,2.1633687777777775,http://www.restaurantpaitrago.es,mailto:paitrago@infonegocio.com
Restaurant Mesón Morriña - Marisqueria Gallega,-,-----,Eixample,Sant Antoni,BARCELONA,08015,BARCELONA,ESPANYA,41.37716161111111,2.163694,http://marisqueriagallega.com,mailto:info@marisqueriagallega.com
Restaurant Druida,-,-----,Eixample,Sant Antoni,BARCELONA,08015,BARCELONA,ESPANYA,41.37731559722222,2.163900527777778,http://www.restaurantedruida.com,mailto:druida@restaurantedruida.com
Restaurant El Paraguayo,-,-----,Ciutat Vella,el Barri Gòtic,BARCELONA,08002,BARCELONA,ESPANYA,41.37744586666667,2.1783897777777774,-----,mailto:e-paraguayo@e-paraguayo.com
Bar El Paraigua,-,-----,Ciutat Vella,el Barri Gòtic,BARCELONA,08002,BARCELONA,ESPANYA,41.38189104166667,2.1767387777777776,-----,-----
Restaurant Mi Burrito y Yo,-,-----,Ciutat Vella,el Barri Gòtic,BARCELONA,08002,BARCELONA,ESPANYA,41.38189104166667,2.1767387777777776,-----,-----
Hotel AC Diplomàtic,-,-----,Eixample,la Dreta de l'Eixample,BARCELONA,08009,BARCELONA,ESPANYA,41.39275845833333,2.167258361111111,-----,-----
Bar Restaurant Orange Claris Café,-,-----,Eixample,la Dreta de l'Eixample,BARCELONA,08009,BARCELONA,ESPANYA,41.39378559722222,2.1655315555555554,http://www.orangeclariscafe.com,-----
Restaurant Bilbao,-,-----,Gràcia,la Vila de Gràcia,BARCELONA,08012,BARCELONA,ESPANYA,41.39974830277778,2.1618736666666667,-----,-----
Bar Grelan,-,-----,Ciutat Vella,el Raval,BARCELONA,08001,BARCELONA,ESPANYA,41.37595809444444,2.174141472222222,-----,-----
Virreina Bar,-,-----,Gràcia,la Vila de Gràcia,BARCELONA,08024,BARCELONA,ESPANYA,41.404937591666666,2.1575781666666667,http://www.virreinabar.com,mailto:virreinabar@arrakis.es
Bar Restaurant Welcome,-,-----,Gràcia,la Vila de Gràcia,BARCELONA,08012,BARCELONA,ESPANYA,41.40652329444444,2.1509564444444442,-----,-----
Restaurant Cibeiro,-,-----,Nou Barris,Vilapicina i la Torre Llobeta,BARCELONA,08031,BARCELONA,ESPANYA,41.429929975,2.1660400833333333,-----,-----
Bar Restaurant Bello,-,-----,Sant Andreu,el Congrés i els Indians,BARCELONA,08027,BARCELONA,ESPANYA,41.422558430555554,2.179832611111111,-----,-----
Restaurant l'Hortet,-,-----,Ciutat Vella,el Raval,BARCELONA,08001,BARCELONA,ESPANYA,41.38233433333333,2.168636,-----,-----
Restaurant La Llesca,-,-----,Les Corts,la Maternitat i Sant Ramon,BARCELONA,08028,BARCELONA,ESPANYA,41.377383647222224,2.1218840555555554,-----,-----
Bar Restaurant Les Corts,-,-----,Les Corts,la Maternitat i Sant Ramon,BARCELONA,08028,BARCELONA,ESPANYA,41.37803369444445,2.1182356111111114,-----,-----
Bar Restaurant Andres y Juan,-,-----,Nou Barris,Vilapicina i la Torre Llobeta,BARCELONA,08031,BARCELONA,ESPANYA,41.428278352777774,2.1656289444444443,-----,-----
Restaurant Pep,-,-----,Eixample,la Dreta de l'Eixample,BARCELONA,08009,BARCELONA,ESPANYA,41.396115025,2.1688655277777777,-----,-----
Granja Xador,-,-----,Ciutat Vella,Parc,BARCELONA,08003,BARCELONA,ESPANYA,41.38359031388889,2.181111694444444,-----,-----
Bar Restaurant Rodrigo,-,-----,Ciutat Vella,"Sant Pere, Santa Caterina i la Ribera",BARCELONA,08003,BARCELONA,ESPANYA,41.383586125,2.181388944444444,-----,-----
Chez Beatriz,-,-----,Les Corts,les Corts,BARCELONA,08028,BARCELONA,ESPANYA,41.38031765277778,2.1293129166666667,-----,-----
Bar Bodega Quimet i Quimet,-,-----,Sants-Montjuïc,el Poble Sec,BARCELONA,08004,BARCELONA,ESPANYA,41.37397256944445,2.1655674166666667,-----,-----
Bar Restaurant Belfort,-,-----,Sarrià-Sant Gervasi,Sant Gervasi - Galvany,BARCELONA,08021,BARCELONA,ESPANYA,41.394408,2.144318722222222,-----,-----
Restaurant Els Pescadors,-,-----,Sant Martí,el Poblenou,BARCELONA,08005,BARCELONA,ESPANYA,41.399522697222224,2.2069009444444445,http://www.elspescadors.com,mailto:contacte@elspescadors.com
Bar Restaurant Nou Celler,-,-----,Ciutat Vella,"Sant Pere, Santa Caterina i la Ribera",BARCELONA,08003,BARCELONA,ESPANYA,41.38507008055556,2.180208027777778,-----,-----
Bar Albareda,-,-----,Ciutat Vella,"Sant Pere, Santa Caterina i la Ribera",BARCELONA,08003,BARCELONA,ESPANYA,41.38655201388889,2.181884277777778,-----,-----
Restaurant Los Asadores,-,-----,Gràcia,la Vila de Gràcia,BARCELONA,08012,BARCELONA,ESPANYA,41.401702288888885,2.151154583333333,-----,-----
Restaurant El Suquet de Sant Gervasi,-,-----,Sarrià-Sant Gervasi,Sant Gervasi - Galvany,BARCELONA,08006,BARCELONA,ESPANYA,41.40193109444444,2.143007861111111,-----,-----
Bar Restaurant L'Estoret,-,-----,Eixample,la Nova Esquerra de l'Eixample,BARCELONA,08029,BARCELONA,ESPANYA,41.38127975555555,2.1434569722222223,-----,-----
Restaurant Can Buj,-,-----,Eixample,la Nova Esquerra de l'Eixample,BARCELONA,08029,BARCELONA,ESPANYA,41.38523806111111,2.1486981666666667,-----,-----
Cafeteria Restaurant Nou Snop,-,-----,Eixample,la Dreta de l'Eixample,BARCELONA,08008,BARCELONA,ESPANYA,41.39333865,2.1594589166666665,-----,-----
Restaurant Salta,-,-----,Eixample,la Dreta de l'Eixample,BARCELONA,08008,BARCELONA,ESPANYA,41.39390855277778,2.1605860833333335,http://www.saltarestaurant.com/provenca,-----
Restaurant Braseria Cafeteria La Cabaña-Maseda,-,-----,Eixample,la Dreta de l'Eixample,BARCELONA,08037,BARCELONA,ESPANYA,41.39937306388889,2.1678236666666666,-----,-----
Bar Restaurant Ca l'Abuelo,-,-----,Gràcia,la Vila de Gràcia,BARCELONA,08024,BARCELONA,ESPANYA,41.406533958333334,2.1568845,-----,-----
 Company *Av Portal de l'Àngel,-,-----,Ciutat Vella,el Barri Gòtic,BARCELONA,08002,BARCELONA,ESPANYA,41.38481141388889,2.174278861111111,-----,-----
Bar Restaurant La Cerdanya,-,-----,Gràcia,la Vila de Gràcia,BARCELONA,08012,BARCELONA,ESPANYA,41.40179135277778,2.15967825,-----,-----
Restaurant Can Culleretes,-,-----,Ciutat Vella,el Barri Gòtic,BARCELONA,08002,BARCELONA,ESPANYA,41.38121055,2.174411222222222,-----,-----
Restaurant Casa Loli,-,-----,Sants-Montjuïc,el Poble Sec,BARCELONA,08004,BARCELONA,ESPANYA,41.37233839444445,2.160387,-----,-----
Restaurant Tastavins,-,-----,Gràcia,la Vila de Gràcia,BARCELONA,08012,BARCELONA,ESPANYA,41.40212202777778,2.1579421666666665,-----,-----
Restaurant La Llar de Foc,-,-----,Gràcia,la Vila de Gràcia,BARCELONA,08012,BARCELONA,ESPANYA,41.40217208888889,2.1578641944444445,-----,-----
Bar Restaurant Tobogán,-,-----,Ciutat Vella,el Barri Gòtic,BARCELONA,08002,BARCELONA,ESPANYA,41.38021586944444,2.1755948888888885,-----,-----
Bar Colón,-,-----,Ciutat Vella,el Barri Gòtic,BARCELONA,08002,BARCELONA,ESPANYA,41.37979081666667,2.1751628333333333,-----,-----
Restaurant Casa Castro,-,-----,Nou Barris,la Guineueta,BARCELONA,08042,BARCELONA,ESPANYA,41.43947919444444,2.1702174444444444,-----,-----
Bar Restaurant La Marquesa,-,-----,Les Corts,la Maternitat i Sant Ramon,BARCELONA,08028,BARCELONA,ESPANYA,41.37687745277778,2.122294,-----,-----
Restaurant La Riera,-,-----,Les Corts,la Maternitat i Sant Ramon,BARCELONA,08028,BARCELONA,ESPANYA,41.37705325555556,2.12262325,http://www.vegetarialariera.com,mailto:lariera.regentemendieta15@gmail.com
Bar Can Paixano,-,-----,Ciutat Vella,"Sant Pere, Santa Caterina i la Ribera",BARCELONA,08003,BARCELONA,ESPANYA,41.38176051388889,2.1834139166666664,-----,-----
Bar Restaurant Balon de Oro,-,-----,Sarrià-Sant Gervasi,Sarrià,BARCELONA,08034,BARCELONA,ESPANYA,41.3993581,2.1197855277777777,-----,-----
Bar Rico Hermanos MonteroC.B.,-,-----,Sants-Montjuïc,el Poble Sec,BARCELONA,08004,BARCELONA,ESPANYA,41.37337446388889,2.1579498055555555,-----,-----
Restaurant La Troballa,-,-----,Gràcia,la Vila de Gràcia,BARCELONA,08006,BARCELONA,ESPANYA,41.39855946944444,2.1545722222222223,-----,-----
Restaurant Guixot,-,-----,Ciutat Vella,el Raval,BARCELONA,08001,BARCELONA,ESPANYA,41.37855717222222,2.1676921666666664,-----,-----
Restaurant Nostromo,-,-----,Ciutat Vella,el Barri Gòtic,BARCELONA,08002,BARCELONA,ESPANYA,41.38533953333333,2.1754049166666665,-----,-----
Cocteleria Scotch Corner,-,-----,Les Corts,la Maternitat i Sant Ramon,BARCELONA,08028,BARCELONA,ESPANYA,41.38557276666667,2.126244972222222,-----,-----
Restaurant Rick's Cafè American,-,-----,Les Corts,la Maternitat i Sant Ramon,BARCELONA,08028,BARCELONA,ESPANYA,41.385564775,2.1252791111111113,-----,mailto:xaviheral@wanadoo.es
Restaurant La Farola,-,-----,Les Corts,la Maternitat i Sant Ramon,BARCELONA,08028,BARCELONA,ESPANYA,41.38582006944444,2.1254278055555558,-----,-----
Restaurant La Grangeta *Sabino de Arana,-,-----,Les Corts,la Maternitat i Sant Ramon,BARCELONA,08028,BARCELONA,ESPANYA,41.38610478333333,2.124758388888889,-----,-----
Bar el Torico-la Casa del Jamón,-,-----,Eixample,Sant Antoni,BARCELONA,08015,BARCELONA,ESPANYA,41.37636719722222,2.15698425,-----,-----
Restaurant El Rebost Ibèric *Rocafort,-,-----,Eixample,la Nova Esquerra de l'Eixample,BARCELONA,08015,BARCELONA,ESPANYA,41.38003601944445,2.152131444444444,http://www.rebostiberic.es,-----
Restaurant Asador El Yantar de la Ribera,-,-----,Eixample,el Fort Pienc,BARCELONA,08013,BARCELONA,ESPANYA,41.395254305555554,2.1775030555555555,http://www.yantardelaribera.com,-----
Restaurant Barnils,-,-----,Eixample,la Dreta de l'Eixample,BARCELONA,08013,BARCELONA,ESPANYA,41.39911987777778,2.172391472222222,-----,-----
Bar Restaurant Ribeiro,-,-----,Eixample,la Dreta de l'Eixample,BARCELONA,08013,BARCELONA,ESPANYA,41.4005158,2.170560083333333,-----,-----
Restaurant La Dida,-,-----,Eixample,la Dreta de l'Eixample,BARCELONA,08025,BARCELONA,ESPANYA,41.401360877777776,2.1694509444444443,http://www.ladidarestaurant.com,-----
Bar Via Roma,-,-----,Eixample,la Nova Esquerra de l'Eixample,BARCELONA,08029,BARCELONA,ESPANYA,41.38101473888889,2.143594388888889,-----,-----
Bar Paris,-,-----,Eixample,la Nova Esquerra de l'Eixample,BARCELONA,08029,BARCELONA,ESPANYA,41.38101473888889,2.143594388888889,-----,-----
Restaurant Pizzeria La Gavina,-,-----,Gràcia,la Vila de Gràcia,BARCELONA,08012,BARCELONA,ESPANYA,41.401435263888885,2.1553574444444443,-----,-----
Restaurant Rosal 34,-,-----,Sants-Montjuïc,el Poble Sec,BARCELONA,08004,BARCELONA,ESPANYA,41.373134130555556,2.166439611111111,-----,-----
Restaurant Bar Morryssom,-,-----,Eixample,la Dreta de l'Eixample,BARCELONA,08037,BARCELONA,ESPANYA,41.399513694444444,2.1650964999999998,-----,-----
Bar Restaurant Els Galls,-,-----,Eixample,l'Antiga Esquerra de l'Eixample,BARCELONA,08036,BARCELONA,ESPANYA,41.38868923333333,2.15137875,-----,-----
Restaurant Japonès Taki,-,-----,Eixample,l'Antiga Esquerra de l'Eixample,BARCELONA,08036,BARCELONA,ESPANYA,41.39112592222222,2.1546319166666668,-----,-----
Restaurant Xinès Pekín *Rosselló,-,-----,Eixample,la Dreta de l'Eixample,BARCELONA,08008,BARCELONA,ESPANYA,41.39343692222222,2.157712138888889,-----,-----
Restaurant El Centollo,-,-----,Eixample,la Dreta de l'Eixample,BARCELONA,08008,BARCELONA,ESPANYA,41.39348567222222,2.1577761944444442,-----,-----
Restaurant X - Japan,-,-----,Eixample,la Dreta de l'Eixample,BARCELONA,08008,BARCELONA,ESPANYA,41.394289925,2.1584648611111112,-----,-----
Restaurant Vall,-,-----,Gràcia,la Vila de Gràcia,BARCELONA,08024,BARCELONA,ESPANYA,41.40740393055555,2.15852875,-----,mailto:bvc33@hotmail.com
Bar restaurant Mundial *Pl Sant Agustí Vell,-,-----,Ciutat Vella,"Sant Pere, Santa Caterina i la Ribera",BARCELONA,08003,BARCELONA,ESPANYA,41.38761132222222,2.1804562499999998,-----,mailto:mundial_bar@wanadoo.es
Restaurant Econòmic,-,-----,Ciutat Vella,"Sant Pere, Santa Caterina i la Ribera",BARCELONA,08003,BARCELONA,ESPANYA,41.38803705555556,2.1806565,-----,-----
Bar Restaurant Taverna Can Roca,-,-----,Sant Andreu,Sant Andreu,BARCELONA,08030,BARCELONA,ESPANYA,41.43373803055555,2.189308972222222,-----,-----
Bar Versalles,-,-----,Sant Andreu,Sant Andreu,BARCELONA,08030,BARCELONA,ESPANYA,41.435263336111106,2.1896096666666667,http://www.versalles.cat,mailto:info@versalles.cat
Restaurant Xinès Hoja Verde,-,-----,Sants-Montjuïc,Sants,BARCELONA,08014,BARCELONA,ESPANYA,41.377166744444445,2.1370092777777776,-----,-----
Bar Bocatta *Rda Sant Antoni,-,-----,Ciutat Vella,el Raval,BARCELONA,08001,BARCELONA,ESPANYA,41.38431078055555,2.1640476666666664,http://www.bocatta.es,-----
Bar Restaurant Alaska,-,-----,Gràcia,el Camp d'en Grassot i Gràcia Nova,BARCELONA,08037,BARCELONA,ESPANYA,41.403685688888885,2.164566333333333,-----,-----
Restaurant  Can Amigó,-,-----,Horta-Guinardó,el Baix Guinardó,BARCELONA,08025,BARCELONA,ESPANYA,41.410843505555555,2.1736860555555553,-----,-----
Restaurant Lee,-,-----,Gràcia,la Vila de Gràcia,BARCELONA,08012,BARCELONA,ESPANYA,41.39866043611111,2.154550611111111,-----,-----
Bar del Pi,-,-----,Ciutat Vella,el Barri Gòtic,BARCELONA,08002,BARCELONA,ESPANYA,41.382503983333336,2.173968472222222,-----,-----
Bar Restaurant La Fusta,-,-----,Sant Martí,el Clot,BARCELONA,08018,BARCELONA,ESPANYA,41.409143377777774,2.1921420277777774,-----,-----
Bodega Ca La Paqui,-,-----,Sant Martí,el Clot,BARCELONA,08018,BARCELONA,ESPANYA,41.408658458333335,2.192762305555555,-----,-----
Restaurant Il Giardinetto di Gracia,-,-----,Gràcia,la Vila de Gràcia,BARCELONA,08012,BARCELONA,ESPANYA,41.405261277777775,2.1599012777777777,-----,-----
Restaurant Els Ocellets,-,-----,Eixample,Sant Antoni,BARCELONA,08015,BARCELONA,ESPANYA,41.37742373333333,2.1645197222222223,-----,mailto:xaviamics@elsocellets.com
Restaurant Cullera de Boix,-,-----,Eixample,la Dreta de l'Eixample,BARCELONA,08010,BARCELONA,ESPANYA,41.38931442777778,2.1741378888888887,http://www.culleradeboix.com,mailto:info@culleradeboix.com
Restaurant Casa Leopoldo,-,-----,Ciutat Vella,el Raval,BARCELONA,08001,BARCELONA,ESPANYA,41.37926115277778,2.1694935277777776,-----,-----
Restaurant La Cassola,-,-----,Ciutat Vella,el Barri Gòtic,BARCELONA,08002,BARCELONA,ESPANYA,41.383060597222226,2.175282444444444,-----,-----
Bar Restaurant Kentucky Fried Chicken *Sants,-,-----,Sants-Montjuïc,Sants,BARCELONA,08028,BARCELONA,ESPANYA,41.375539741666664,2.134058583333333,-----,-----
Bar Restaurant Santa Anna,-,-----,Ciutat Vella,el Barri Gòtic,BARCELONA,08002,BARCELONA,ESPANYA,41.385034061111114,2.1712477777777774,http://www.restaurantsantaanna.com,mailto:restaurant@restaurantsantaanna.com
Bar Bocatta *Santa Anna,-,-----,Ciutat Vella,el Barri Gòtic,BARCELONA,08002,BARCELONA,ESPANYA,41.38511357777778,2.1712201666666666,http://www.bocatta.es,-----
Restaurant Self Naturista,-,-----,Ciutat Vella,el Barri Gòtic,BARCELONA,08002,BARCELONA,ESPANYA,41.38511357777778,2.1712201666666666,-----,mailto:selfnaturista@telefonica.net
Bar Restaurant Casa Fernández,-,-----,Sarrià-Sant Gervasi,Sant Gervasi - Galvany,BARCELONA,08021,BARCELONA,ESPANYA,41.396094669444444,2.1453700277777776,http://www.casafernandez.com,mailto:casafernandez@casafernandez.com
Restaurant L'Oliana,-,-----,Sarrià-Sant Gervasi,Sant Gervasi - Galvany,BARCELONA,08021,BARCELONA,ESPANYA,41.39652430277778,2.144824388888889,http://www.oliana.com,mailto:oliana@oliana.com
Bar Restaurant El Pa Torrat,-,-----,Sarrià-Sant Gervasi,Sant Gervasi - Galvany,BARCELONA,08021,BARCELONA,ESPANYA,41.397097494444445,2.144103972222222,-----,-----
Restaurant Abou Khalil,-,-----,Sarrià-Sant Gervasi,Sant Gervasi - Galvany,BARCELONA,08021,BARCELONA,ESPANYA,41.397731908333334,2.143299416666667,http://www.aboukhalil.es,mailto:info@aboukhalil.es
Bar El Raco de Gracia,-,-----,Gràcia,la Vila de Gràcia,BARCELONA,08012,BARCELONA,ESPANYA,41.400071241666666,2.1568043055555552,-----,-----
Restaurant  Argentina Vinya Rosa,-,-----,Eixample,la Nova Esquerra de l'Eixample,BARCELONA,08029,BARCELONA,ESPANYA,41.38989996666667,2.1467414166666665,http://www.restaurantargentina.es,-----
Bar Cafeteria Aquitània,-,-----,Eixample,la Nova Esquerra de l'Eixample,BARCELONA,08029,BARCELONA,ESPANYA,41.39000093888889,2.144652777777778,-----,-----
Bar Restaurant Sarrià 82,-,-----,Les Corts,les Corts,BARCELONA,08017,BARCELONA,ESPANYA,41.391821855555555,2.1332216666666666,-----,-----
Restaurant Xinès Nan King,-,-----,Les Corts,les Corts,BARCELONA,08029,BARCELONA,ESPANYA,41.38782671388889,2.1424556666666668,-----,-----
Restaurant Roig Robí,-,-----,Gràcia,la Vila de Gràcia,BARCELONA,08006,BARCELONA,ESPANYA,41.39690646111111,2.156274888888889,http://www.roigrobi.com,mailto:roigrobi@roigrobi.com
Bar Restaurant Ca La Marona,-,-----,Gràcia,la Vila de Gràcia,BARCELONA,08006,BARCELONA,ESPANYA,41.39648445555555,2.1555616666666664,-----,-----
Restaurant Braseria La Taverna de Lesseps,-,-----,Sarrià-Sant Gervasi,el Putxet i el Farró,BARCELONA,08006,BARCELONA,ESPANYA,41.40555118611111,2.1479368333333335,-----,-----
